~Version ---------------------------------------------------
VERS. 2.0 : CWLS log ASCII Standard -VERSION 2.0
WRAP.  NO : One line per frame
~Well ------------------------------------------------------
STRT.S                         0.0 : Starting Time
STOP.S                     15391.0 : Ending Time
STEP.S                       0.125 : Level Spacing
NULL.                      -999.25 : Absent Value
COMP.  BATTELLE MEMORIAL INSTITUTE : Company
WELL.             FORGE 16B(78)-32 : Well
FLD .                        FORGE : Field
LOC .                              : Location
CNTY.                       BEAVER : County
STAT.                         UTAH : State
CTRY.                          USA : Country
SRVC.                 Baker Hughes : Service Company
DATE. Wed Jun 28 07:03:31 2023 Z-7 : Log Date
API .                              : API Number
UWI .                              : Unique Well ID
DEPTHMD .ft          5494.27930    : Measured Depth
DEPTHTVD .ft            5494.00    : True Vertical Depth
~Curve Information -----------------------------------------
TIME   .S    99 995 99  1 : System time since record start
APQJ   .psi  99 995 99  1 : 1970JB Quartzdyne gauge pressure
CPTV   .cm3  99 995 99  1 : Cumulative pump-through volume
DBDEPTH.ft   99 995 99  1 : Depth of 1970DB straddle packer
RTDQJ  .degF 99 995 99  1 : 1970JB Quartzdyne pressure gauge temperature
SPEP   .psi  99 995 99  1 : Packer element pressure
PTFRC  .cc/s 99 995 99  1 : Rate (injection and flowback)
CPTVF  .L    99 995 99  1 : Continuous pump-through volume
ASPEP  .psi  99 995 99  1 : Absolute packer element pressure
~Params ----------------------------------------------------
LATI.DEG 0.0 : Latitude
LONG.DEG 0.0 : Longitude
~Other -----------------------------------------------------
~ASCII -----------------------------------------------------
# ...
 5150.00000 2414.25610 27658.16406 5494.30225  229.77022  462.00000    0.00000   27.65816 2822.00000
 5150.12500 2414.23340 27658.21289 5494.30225  229.77025  462.00000    0.00000   27.65821 2822.00000
 5150.25000 2414.21118 27658.25977 5494.30225  229.77025  462.00000    0.00000   27.65826 2822.00000
 5150.37500 2414.18921 27658.30664 5494.30225  229.77025  462.00000    0.00000   27.65831 2822.00000
 5150.50000 2414.16870 27658.35547 5494.30225  229.77025  462.00000    0.00000   27.65836 2822.00000
 5150.62500 2414.14893 27658.40430 5494.30225  229.77025  462.00000    0.00000   27.65840 2822.00000
 5150.75000 2414.13037 27658.45312 5494.30225  229.77025  462.00000    0.00000   27.65845 2822.00000
 5150.87500 2414.11182 27658.50391 5494.30225  229.77026  459.00000    0.00000   27.65850 2819.00000
 5151.00000 2414.09302 27658.55469 5494.30225  229.77028  459.00000    0.00000   27.65855 2819.00000
 5151.12500 2414.07397 27658.60547 5494.30225  229.77031  459.00000    0.00000   27.65861 2819.00000
 5151.25000 2414.05420 27658.65430 5494.30225  229.77032  459.00000    0.00000   27.65865 2819.00000
 5151.37500 2414.03418 27658.70508 5494.30225  229.77036  462.00000    0.00000   27.65871 2822.00000
 5151.50000 2414.01416 27658.75195 5494.30225  229.77039  462.00000    0.00000   27.65875 2822.00000
 5151.62500 2413.99341 27658.79883 5494.30225  229.77040  462.00000    0.00000   27.65880 2822.00000
 5151.75000 2413.97266 27658.84180 5494.30225  229.77043  462.00000    0.00000   27.65884 2822.00000
 5151.87500 2413.95166 27658.88477 5494.30225  229.77042  462.00000    0.00000   27.65888 2822.00000
 5152.00000 2413.93042 27658.92773 5494.30225  229.77043  462.00000    0.00000   27.65893 2822.00000
 5152.12500 2413.90894 27658.97461 5494.30225  229.77043  462.00000    0.00000   27.65897 2822.00000
 5152.25000 2413.88770 27659.02539 5494.30225  229.77045  462.00000    0.00000   27.65903 2822.00000
 5152.37500 2413.86670 27659.07812 5494.30225  229.77046  459.00000    0.00000   27.65908 2819.00000
 5152.50000 2413.84619 27659.12891 5494.30225  229.77049  459.00000    0.00000   27.65913 2819.00000
 5152.62500 2413.82666 27659.17773 5494.30225  229.77049  459.00000    0.00000   27.65918 2819.00000
 5152.75000 2413.80762 27659.22266 5494.30225  229.77051  459.00000    0.00000   27.65922 2819.00000
 5152.87500 2413.78906 27659.26367 5494.30225  229.77052  462.00000    0.00000   27.65926 2822.00000
 5153.00000 2413.77148 27659.30078 5494.30225  229.77052  462.00000    0.00000   27.65930 2822.00000
 5153.12500 2413.75415 27659.33594 5494.30225  229.77054  462.00000    0.00000   27.65934 2822.00000
 5153.25000 2413.73730 27659.37305 5494.30225  229.77054  462.00000    0.00000   27.65937 2822.00000
 5153.37500 2413.72070 27659.41211 5494.30225  229.77058  459.00000    0.00000   27.65941 2819.00000
 5153.50000 2413.70410 27659.45312 5494.30225  229.77063  459.00000    0.00000   27.65945 2819.00000
 5153.62500 2413.68628 27659.49805 5494.30225  229.77065  462.00000    0.00000   27.65950 2822.00000
 5153.75000 2413.66699 27659.54492 5494.30225  229.77066  462.00000    0.00000   27.65954 2822.00000
 5153.87500 2413.64575 27659.59570 5494.30225  229.77065  468.00000    0.00000   27.65960 2828.00000
 5154.00000 2413.62305 27659.64648 5494.30225  229.77063  468.00000    0.00000   27.65965 2828.00000
 5154.12500 2413.59961 27659.69727 5494.30225  229.77066  459.00000    0.00000   27.65970 2819.00000
 5154.25000 2413.57617 27659.74219 5494.30225  229.77068  459.00000    0.00000   27.65974 2819.00000
 5154.37500 2413.55298 27659.78516 5494.30225  229.77068  462.00000    0.00000   27.65979 2822.00000
 5154.50000 2413.53101 27659.82422 5494.30225  229.77071  462.00000    0.00000   27.65982 2822.00000
 5154.62500 2413.50977 27659.86328 5494.30225  229.77074  462.00000    0.00000   27.65986 2822.00000
 5154.75000 2413.48901 27659.90234 5494.30225  229.77077  462.00000    0.00000   27.65990 2822.00000
 5154.87500 2413.46899 27659.94336 5494.30225  229.77075  462.00000    0.00000   27.65994 2822.00000
 5155.00000 2413.45044 27659.98633 5494.30225  229.77080  462.00000    0.00000   27.65999 2822.00000
 5155.12500 2413.43213 27660.03125 5494.30225  229.77080  462.00000    0.00000   27.66003 2822.00000
 5155.25000 2413.41504 27660.07617 5494.30225  229.77081  462.00000    0.00000   27.66008 2822.00000
 5155.37500 2413.39868 27660.12109 5494.30225  229.77081  462.00000    0.00000   27.66012 2822.00000
 5155.50000 2413.38232 27660.16602 5494.30225  229.77081  462.00000    0.00000   27.66017 2822.00000
 5155.62500 2413.36621 27660.20898 5494.30225  229.77081  459.00000    0.00000   27.66021 2819.00000
 5155.75000 2413.35010 27660.25195 5494.30225  229.77084  459.00000    0.00000   27.66025 2819.00000
 5155.87500 2413.33325 27660.29297 5494.30225  229.77086  459.00000    0.00000   27.66029 2819.00000
 5156.00000 2413.31665 27660.33203 5494.30225  229.77087  459.00000    0.00000   27.66033 2819.00000
 5156.12500 2413.29932 27660.36914 5494.30225  229.77090  462.00000    0.00000   27.66037 2822.00000
 5156.25000 2413.28149 27660.40625 5494.30225  229.77094  462.00000    0.00000   27.66041 2822.00000
 5156.37500 2413.26367 27660.44336 5494.30225  229.77095  459.00000    0.00000   27.66044 2819.00000
 5156.50000 2413.24609 27660.48242 5494.30225  229.77098  459.00000    0.00000   27.66048 2819.00000
 5156.62500 2413.22852 27660.52344 5494.30225  229.77098  462.00000    0.00000   27.66052 2822.00000
 5156.75000 2413.21143 27660.56445 5494.30225  229.77100  462.00000    0.00000   27.66056 2822.00000
 5156.87500 2413.19482 27660.60547 5494.30225  229.77100  462.00000    0.00000   27.66061 2822.00000
 5157.00000 2413.17920 27660.64453 5494.30225  229.77098  462.00000    0.00000   27.66064 2822.00000
 5157.12500 2413.16479 27660.67969 5494.30225  229.77098  462.00000    0.00000   27.66068 2822.00000
 5157.25000 2413.15088 27660.71289 5494.30225  229.77101  462.00000    0.00000   27.66071 2822.00000
 5157.37500 2413.13696 27660.74414 5494.30225  229.77106  459.00000    0.00000   27.66074 2819.00000
 5157.50000 2413.12305 27660.77539 5494.30225  229.77109  459.00000    0.00000   27.66078 2819.00000
 5157.62500 2413.10791 27660.80664 5494.30225  229.77110  459.00000    0.00000   27.66081 2819.00000
 5157.75000 2413.09131 27660.83984 5494.30225  229.77112  459.00000    0.00000   27.66084 2819.00000
 5157.87500 2413.07471 27660.87305 5494.30225  229.77115  459.00000    0.00000   27.66087 2819.00000
 5158.00000 2413.05762 27660.90625 5494.30225  229.77115  459.00000    0.00000   27.66091 2819.00000
 5158.12500 2413.04126 27660.94141 5494.30225  229.77118  459.00000    0.00000   27.66094 2819.00000
 5158.25000 2413.02588 27660.97852 5494.30225  229.77118  459.00000    0.00000   27.66098 2819.00000
 5158.37500 2413.01074 27661.01758 5494.30225  229.77118  459.00000    0.00000   27.66102 2819.00000
 5158.50000 2412.99536 27661.05664 5494.30225  229.77121  459.00000    0.00000   27.66106 2819.00000
 5158.62500 2412.97974 27661.09570 5494.30225  229.77119  462.00000    0.00000   27.66110 2822.00000
 5158.75000 2412.96338 27661.13477 5494.30225  229.77118  462.00000    0.00000   27.66113 2822.00000
 5158.87500 2412.94727 27661.17188 5494.30225  229.77121  462.00000    0.00000   27.66117 2822.00000
 5159.00000 2412.93188 27661.20898 5494.30225  229.77122  462.00000    0.00000   27.66121 2822.00000
 5159.12500 2412.91748 27661.24414 5494.30225  229.77126  459.00000    0.00000   27.66124 2819.00000
 5159.25000 2412.90430 27661.27930 5494.30225  229.77126  459.00000    0.00000   27.66128 2819.00000
 5159.37500 2412.89209 27661.31445 5494.30225  229.77132  459.00000    0.00000   27.66131 2819.00000
 5159.50000 2412.87939 27661.34570 5494.30225  229.77132  459.00000    0.00000   27.66135 2819.00000
 5159.62500 2412.86670 27661.37695 5494.30225  229.77132  462.00000    0.00000   27.66138 2822.00000
 5159.75000 2412.85229 27661.40430 5494.30225  229.77135  462.00000    0.00000   27.66140 2822.00000
 5159.87500 2412.83716 27661.43164 5494.30225  229.77136  462.00000    0.00000   27.66143 2822.00000
