~Version ---------------------------------------------------
VERS. 2.0 : CWLS log ASCII Standard -VERSION 2.0
WRAP.  NO : One line per frame
~Well ------------------------------------------------------
STRT.S                         0.0 : Starting Time
STOP.S                     15391.0 : Ending Time
STEP.S                       0.125 : Level Spacing
NULL.                      -999.25 : Absent Value
COMP.  BATTELLE MEMORIAL INSTITUTE : Company
WELL.             FORGE 16B(78)-32 : Well
FLD .                        FORGE : Field
LOC .                              : Location
CNTY.                       BEAVER : County
STAT.                         UTAH : State
CTRY.                          USA : Country
SRVC.                 Baker Hughes : Service Company
DATE. Wed Jun 28 07:03:31 2023 Z-7 : Log Date
API .                              : API Number
UWI .                              : Unique Well ID
DEPTHMD .ft          5494.27930    : Measured Depth
DEPTHTVD .ft            5494.00    : True Vertical Depth
~Curve Information -----------------------------------------
TIME   .S    99 995 99  1 : System time since record start
APQJ   .psi  99 995 99  1 : 1970JB Quartzdyne gauge pressure
CPTV   .cm3  99 995 99  1 : Cumulative pump-through volume
DBDEPTH.ft   99 995 99  1 : Depth of 1970DB straddle packer
RTDQJ  .degF 99 995 99  1 : 1970JB Quartzdyne pressure gauge temperature
SPEP   .psi  99 995 99  1 : Packer element pressure
PTFRC  .cc/s 99 995 99  1 : Rate (injection and flowback)
CPTVF  .L    99 995 99  1 : Continuous pump-through volume
ASPEP  .psi  99 995 99  1 : Absolute packer element pressure
~Params ----------------------------------------------------
LATI.DEG 0.0 : Latitude
LONG.DEG 0.0 : Longitude
~Other -----------------------------------------------------
~ASCII -----------------------------------------------------
# ...
 14354.87500 2416.05542 49115.28516 5494.28906  232.18130  459.00000    3.90625   49.11529 2819.00000
 14355.00000 2415.88623 49115.76562 5494.28906  232.18130  459.00000    3.84375   49.11577 2819.00000
 14355.12500 2415.71777 49116.24219 5494.28906  232.18135  459.00000    3.81250   49.11624 2819.00000
 14355.25000 2415.54980 49116.72266 5494.28906  232.18138  459.00000    3.84375   49.11672 2819.00000
 14355.37500 2415.38159 49117.19922 5494.28906  232.18141  459.00000    3.81250   49.11720 2819.00000
 14355.50000 2415.21313 49117.67578 5494.28906  232.18147  459.00000    3.81250   49.11768 2819.00000
 14355.62500 2415.04492 49118.15625 5494.28906  232.18150  459.00000    3.84375   49.11816 2819.00000
 14355.75000 2414.87793 49118.63672 5494.28906  232.18152  459.00000    3.84375   49.11864 2819.00000
 14355.87500 2414.71289 49119.11719 5494.28906  232.18152  453.00000    3.84375   49.11912 2813.00000
 14356.00000 2414.55054 49119.60547 5494.28906  232.18149  453.00000    3.90625   49.11961 2813.00000
 14356.12500 2414.39087 49120.08594 5494.28906  232.18152  459.00000    3.84375   49.12009 2819.00000
 14356.25000 2414.23340 49120.57422 5494.28906  232.18152  459.00000    3.90625   49.12057 2819.00000
 14356.37500 2414.07666 49121.05469 5494.28906  232.18155  462.00000    3.84375   49.12105 2822.00000
 14356.50000 2413.92041 49121.53516 5494.28906  232.18158  462.00000    3.84375   49.12154 2822.00000
 14356.62500 2413.76318 49122.01562 5494.28906  232.18163  459.00000    3.84375   49.12202 2819.00000
 14356.75000 2413.60547 49122.48828 5494.28906  232.18164  459.00000    3.78125   49.12249 2819.00000
 14356.87500 2413.44897 49122.96094 5494.28906  232.18166  459.00000    3.78125   49.12296 2819.00000
 14357.00000 2413.29419 49123.42578 5494.28906  232.18170  459.00000    3.71875   49.12343 2819.00000
 14357.12500 2413.14136 49123.89844 5494.28906  232.18172  459.00000    3.78125   49.12390 2819.00000
 14357.25000 2412.98975 49124.37109 5494.28906  232.18172  459.00000    3.78125   49.12437 2819.00000
 14357.37500 2412.83862 49124.85156 5494.28906  232.18172  453.00000    3.84375   49.12485 2813.00000
 14357.50000 2412.68726 49125.32422 5494.28906  232.18175  453.00000    3.78125   49.12532 2813.00000
 14357.62500 2412.53564 49125.79688 5494.28906  232.18175  459.00000    3.78125   49.12580 2819.00000
 14357.75000 2412.38477 49126.26953 5494.28906  232.18179  459.00000    3.78125   49.12627 2819.00000
 14357.87500 2412.23608 49126.74219 5494.28906  232.18185  459.00000    3.78125   49.12674 2819.00000
 14358.00000 2412.08936 49127.21875 5494.28906  232.18190  459.00000    3.81250   49.12722 2819.00000
 14358.12500 2411.94434 49127.69141 5494.28906  232.18190  453.00000    3.78125   49.12769 2813.00000
 14358.25000 2411.80029 49128.16406 5494.28906  232.18193  453.00000    3.78125   49.12816 2813.00000
 14358.37500 2411.65625 49128.63672 5494.28906  232.18193  459.00000    3.78125   49.12864 2819.00000
 14358.50000 2411.51147 49129.10938 5494.28906  232.18193  459.00000    3.78125   49.12911 2819.00000
 14358.62500 2411.36621 49129.58203 5494.28906  232.18196  453.00000    3.78125   49.12958 2813.00000
 14358.75000 2411.22021 49130.05469 5494.28906  232.18196  453.00000    3.78125   49.13005 2813.00000
 14358.87500 2411.07422 49130.52734 5494.28906  232.18196  462.00000    3.78125   49.13053 2822.00000
 14359.00000 2410.92944 49131.00000 5494.28906  232.18199  462.00000    3.78125   49.13100 2822.00000
 14359.12500 2410.78613 49131.47656 5494.28906  232.18201  459.00000    3.81250   49.13148 2819.00000
 14359.25000 2410.64478 49131.94922 5494.28906  232.18204  459.00000    3.78125   49.13195 2819.00000
 14359.37500 2410.50586 49132.42188 5494.28906  232.18205  453.00000    3.78125   49.13242 2813.00000
 14359.50000 2410.36890 49132.89453 5494.28906  232.18207  453.00000    3.78125   49.13289 2813.00000
 14359.62500 2410.23389 49133.36719 5494.28906  232.18210  453.00000    3.78125   49.13337 2813.00000
 14359.75000 2410.10010 49133.83984 5494.28906  232.18213  453.00000    3.78125   49.13384 2813.00000
 14359.87500 2409.96631 49134.32031 5494.28906  232.18216  453.00000    3.84375   49.13432 2813.00000
 14360.00000 2409.83203 49134.79297 5494.28906  232.18216  453.00000    3.78125   49.13479 2813.00000
 14360.12500 2409.69653 49135.26953 5494.28906  232.18217  459.00000    3.81250   49.13527 2819.00000
 14360.25000 2409.56030 49135.75000 5494.28906  232.18217  459.00000    3.84375   49.13575 2819.00000
 14360.37500 2409.42432 49136.23438 5494.28906  232.18221  459.00000    3.87500   49.13623 2819.00000
 14360.50000 2409.28906 49136.71875 5494.28906  232.18221  459.00000    3.87500   49.13672 2819.00000
 14360.62500 2409.15503 49137.20312 5494.28906  232.18224  459.00000    3.87500   49.13720 2819.00000
 14360.75000 2409.02222 49137.68750 5494.28906  232.18225  459.00000    3.87500   49.13769 2819.00000
 14360.87500 2408.89038 49138.17188 5494.28906  232.18230  453.00000    3.87500   49.13817 2813.00000
 14361.00000 2408.75903 49138.65625 5494.28906  232.18231  453.00000    3.87500   49.13866 2813.00000
 14361.12500 2408.62744 49139.13281 5494.28906  232.18234  459.00000    3.81250   49.13913 2819.00000
 14361.25000 2408.49561 49139.61328 5494.28906  232.18236  459.00000    3.84375   49.13961 2819.00000
 14361.37500 2408.36450 49140.08984 5494.28906  232.18240  459.00000    3.81250   49.14009 2819.00000
 14361.50000 2408.23438 49140.57031 5494.28906  232.18242  459.00000    3.84375   49.14057 2819.00000
 14361.62500 2408.10522 49141.05469 5494.28906  232.18243  453.00000    3.87500   49.14105 2813.00000
 14361.75000 2407.97681 49141.54297 5494.28906  232.18243  453.00000    3.90625   49.14154 2813.00000
 14361.87500 2407.84888 49142.03516 5494.28906  232.18245  459.00000    3.93750   49.14204 2819.00000
 14362.00000 2407.72119 49142.53125 5494.28906  232.18245  459.00000    3.96875   49.14253 2819.00000
 14362.12500 2407.59302 49143.02734 5494.28906  232.18248  510.00000    3.96875   49.14303 2870.00000
 14362.25000 2407.46436 49143.52734 5494.28906  232.18250  510.00000    4.00000   49.14353 2870.00000
 14362.37500 2407.33496 49144.02344 5494.28906  232.18253  453.00000    3.96875   49.14402 2813.00000
 14362.50000 2407.20508 49144.51562 5494.28906  232.18256  453.00000    3.93750   49.14452 2813.00000
 14362.62500 2407.07471 49145.00391 5494.28906  232.18259  453.00000    3.90625   49.14500 2813.00000
 14362.75000 2406.94531 49145.48438 5494.28906  232.18262  453.00000    3.84375   49.14548 2813.00000
 14362.87500 2406.81738 49145.96484 5494.28906  232.18262  453.00000    3.84375   49.14596 2813.00000
 14363.00000 2406.69263 49146.44531 5494.28906  232.18263  453.00000    3.84375   49.14645 2813.00000
 14363.12500 2406.57031 49146.91797 5494.28906  232.18265  453.00000    3.78125   49.14692 2813.00000
 14363.25000 2406.44995 49147.39062 5494.28906  232.18265  453.00000    3.78125   49.14739 2813.00000
 14363.37500 2406.32935 49147.86328 5494.28906  232.18265  453.00000    3.78125   49.14786 2813.00000
 14363.50000 2406.20752 49148.33594 5494.28906  232.18265  453.00000    3.78125   49.14834 2813.00000
 14363.62500 2406.08423 49148.81641 5494.28906  232.18269  459.00000    3.84375   49.14882 2819.00000
 14363.75000 2405.95996 49149.30469 5494.28906  232.18272  459.00000    3.90625   49.14930 2819.00000
 14363.87500 2405.83569 49149.80078 5494.28906  232.18274  459.00000    3.96875   49.14980 2819.00000
 14364.00000 2405.71216 49150.30469 5494.28906  232.18275  459.00000    4.03125   49.15030 2819.00000
 14364.12500 2405.59082 49150.82031 5494.28906  232.18279  459.00000    4.12500   49.15082 2819.00000
 14364.25000 2405.47095 49151.33203 5494.28906  232.18279  459.00000    4.09375   49.15133 2819.00000
 14364.37500 2405.35254 49151.84766 5494.28906  232.18279  459.00000    4.12500   49.15185 2819.00000
 14364.50000 2405.23486 49152.35938 5494.28906  232.18282  459.00000    4.09375   49.15236 2819.00000
 14364.62500 2405.11743 49152.85938 5494.28906  232.18282  453.00000    4.00000   49.15286 2813.00000
