~Version ---------------------------------------------------
VERS. 2.0 : CWLS log ASCII Standard -VERSION 2.0
WRAP.  NO : One line per frame
~Well ------------------------------------------------------
STRT.S                         0.0 : Starting Time
STOP.S                     15391.0 : Ending Time
STEP.S                       0.125 : Level Spacing
NULL.                      -999.25 : Absent Value
COMP.  BATTELLE MEMORIAL INSTITUTE : Company
WELL.             FORGE 16B(78)-32 : Well
FLD .                        FORGE : Field
LOC .                              : Location
CNTY.                       BEAVER : County
STAT.                         UTAH : State
CTRY.                          USA : Country
SRVC.                 Baker Hughes : Service Company
DATE. Wed Jun 28 07:03:31 2023 Z-7 : Log Date
API .                              : API Number
UWI .                              : Unique Well ID
DEPTHMD .ft          5494.27930    : Measured Depth
DEPTHTVD .ft            5494.00    : True Vertical Depth
~Curve Information -----------------------------------------
TIME   .S    99 995 99  1 : System time since record start
APQJ   .psi  99 995 99  1 : 1970JB Quartzdyne gauge pressure
CPTV   .cm3  99 995 99  1 : Cumulative pump-through volume
DBDEPTH.ft   99 995 99  1 : Depth of 1970DB straddle packer
RTDQJ  .degF 99 995 99  1 : 1970JB Quartzdyne pressure gauge temperature
SPEP   .psi  99 995 99  1 : Packer element pressure
PTFRC  .cc/s 99 995 99  1 : Rate (injection and flowback)
CPTVF  .L    99 995 99  1 : Continuous pump-through volume
ASPEP  .psi  99 995 99  1 : Absolute packer element pressure
~Params ----------------------------------------------------
LATI.DEG 0.0 : Latitude
LONG.DEG 0.0 : Longitude
~Other -----------------------------------------------------
~ASCII -----------------------------------------------------
# ...
 1030.00000 2361.48535 22124.99805 5494.30225  230.42387  351.00000    1.04382   22.14809 2711.00000
 1030.12500 2361.48413 22124.99805 5494.30225  230.42368  351.00000    1.04382   22.14822 2711.00000
 1030.25000 2361.48193 22124.99805 5494.30225  230.42348  351.00000    1.04382   22.14835 2711.00000
 1030.37500 2361.47974 22124.99805 5494.30225  230.42326  351.00000    1.04382   22.14848 2711.00000
 1030.50000 2361.47803 22124.99805 5494.30225  230.42305  351.00000    1.04382   22.14861 2711.00000
 1030.62500 2361.47729 22124.99805 5494.30225  230.42284  351.00000    1.04382   22.14875 2711.00000
 1030.75000 2361.47656 22124.99805 5494.30225  230.42261  351.00000    1.04382   22.14888 2711.00000
 1030.87500 2361.47461 22124.99805 5494.30225  230.42241  351.00000    1.04382   22.14901 2711.00000
 1031.00000 2361.47168 22124.99805 5494.30225  230.42221  351.00000    1.04382   22.14914 2711.00000
 1031.12500 2361.46899 22124.99805 5494.30225  230.42203  351.00000    1.04382   22.14927 2711.00000
 1031.25000 2361.46680 22124.99805 5494.30225  230.42184  351.00000    1.04382   22.14940 2711.00000
 1031.37500 2361.46606 22124.99805 5494.30225  230.42168  354.00000    1.04382   22.14953 2714.00000
 1031.50000 2361.46582 22124.99805 5494.30225  230.42148  354.00000    1.04382   22.14966 2714.00000
 1031.62500 2361.46558 22124.99805 5494.30225  230.42133  351.00000    1.04382   22.14979 2711.00000
 1031.75000 2361.46436 22124.99805 5494.30225  230.42113  351.00000    1.04382   22.14992 2711.00000
 1031.87500 2361.46216 22124.99805 5494.30225  230.42091  354.00000    1.04382   22.15005 2714.00000
 1032.00000 2361.45898 22124.99805 5494.30225  230.42072  354.00000    1.04382   22.15018 2714.00000
 1032.12500 2361.45581 22124.99805 5494.30225  230.42049  354.00000    1.04382   22.15031 2714.00000
 1032.25000 2361.45215 22124.99805 5494.30225  230.42027  354.00000    1.04382   22.15044 2714.00000
 1032.37500 2361.44775 22124.99805 5494.30225  230.42007  354.00000    1.04382   22.15057 2714.00000
 1032.50000 2361.44409 22124.99805 5494.30225  230.41986  354.00000    1.04382   22.15070 2714.00000
 1032.62500 2361.44214 22124.99805 5494.30225  230.41969  354.00000    1.04382   22.15083 2714.00000
 1032.75000 2361.44287 22124.99805 5494.30225  230.41949  354.00000    1.04382   22.15096 2714.00000
 1032.87500 2361.44434 22124.99805 5494.30225  230.41930  354.00000    1.04382   22.15109 2714.00000
 1033.00000 2361.44482 22124.99805 5494.30225  230.41910  354.00000    1.04382   22.15122 2714.00000
 1033.12500 2361.44336 22124.99805 5494.30225  230.41890  360.00000    1.04382   22.15135 2720.00000
 1033.25000 2361.44019 22124.99805 5494.30225  230.41869  360.00000    1.04382   22.15149 2720.00000
 1033.37500 2361.43628 22124.99805 5494.30225  230.41849  360.00000    1.04382   22.15162 2720.00000
 1033.50000 2361.43335 22124.99805 5494.30225  230.41830  360.00000    1.04382   22.15175 2720.00000
 1033.62500 2361.43164 22124.99805 5494.30225  230.41811  354.00000    1.04382   22.15188 2714.00000
 1033.75000 2361.43066 22124.99805 5494.30225  230.41794  354.00000    1.04382   22.15201 2714.00000
 1033.87500 2361.42944 22124.99805 5494.30225  230.41776  354.00000    1.04382   22.15214 2714.00000
 1034.00000 2361.42773 22124.99805 5494.30225  230.41756  354.00000    1.04382   22.15227 2714.00000
 1034.12500 2361.42529 22124.99805 5494.30225  230.41734  360.00000    1.04382   22.15240 2720.00000
 1034.25000 2361.42334 22124.99805 5494.30225  230.41714  360.00000    1.04382   22.15253 2720.00000
 1034.37500 2361.42188 22124.99805 5494.30225  230.41693  366.00000    1.04382   22.15266 2726.00000
 1034.50000 2361.42065 22124.99805 5494.30225  230.41670  366.00000    1.04382   22.15279 2726.00000
 1034.62500 2361.41846 22124.99805 5494.30225  230.41649  360.00000    1.04382   22.15292 2720.00000
 1034.75000 2361.41577 22124.99805 5494.30225  230.41629  360.00000    1.04382   22.15305 2720.00000
 1034.87500 2361.41284 22124.99805 5494.30225  230.41611  360.00000    1.04382   22.15318 2720.00000
 1035.00000 2361.41040 22124.99805 5494.30225  230.41591  360.00000    1.04382   22.15331 2720.00000
 1035.12500 2361.40820 22124.99805 5494.30225  230.41573  360.00000    1.04382   22.15344 2720.00000
 1035.25000 2361.40674 22124.99805 5494.30225  230.41554  360.00000    1.04382   22.15357 2720.00000
 1035.37500 2361.40503 22124.99805 5494.30225  230.41534  366.00000    1.04382   22.15370 2726.00000
 1035.50000 2361.40308 22124.99805 5494.30225  230.41516  366.00000    1.04382   22.15383 2726.00000
 1035.62500 2361.40063 22124.99805 5494.30225  230.41496  360.00000    1.04382   22.15396 2720.00000
 1035.75000 2361.39795 22124.99805 5494.30225  230.41475  360.00000    1.04382   22.15409 2720.00000
 1035.87500 2361.39526 22124.99805 5494.30225  230.41458  360.00000    1.04382   22.15423 2720.00000
 1036.00000 2361.39331 22124.99805 5494.30225  230.41438  360.00000    1.04382   22.15436 2720.00000
 1036.12500 2361.39185 22124.99805 5494.30225  230.41420  360.00000    1.04382   22.15449 2720.00000
 1036.25000 2361.39111 22124.99805 5494.30225  230.41399  360.00000    1.04382   22.15462 2720.00000
 1036.37500 2361.39062 22124.99805 5494.30225  230.41377  366.00000    1.04382   22.15475 2726.00000
 1036.50000 2361.39038 22124.99805 5494.30225  230.41357  366.00000    1.04382   22.15488 2726.00000
 1036.62500 2361.38892 22124.99805 5494.30225  230.41336  366.00000    1.04382   22.15501 2726.00000
 1036.75000 2361.38672 22124.99805 5494.30225  230.41316  366.00000    1.04382   22.15514 2726.00000
 1036.87500 2361.38306 22124.99805 5494.30225  230.41296  366.00000    1.04382   22.15527 2726.00000
 1037.00000 2361.37939 22124.99805 5494.30225  230.41278  366.00000    1.04382   22.15540 2726.00000
 1037.12500 2361.37671 22124.99805 5494.30225  230.41258  366.00000    1.04382   22.15553 2726.00000
 1037.25000 2361.37524 22124.99805 5494.30225  230.41240  366.00000    1.04382   22.15566 2726.00000
 1037.37500 2361.37524 22124.99805 5494.30225  230.41217  369.00000    1.04382   22.15579 2729.00000
 1037.50000 2361.37524 22124.99805 5494.30225  230.41197  369.00000    1.04382   22.15592 2729.00000
 1037.62500 2361.37451 22124.99805 5494.30225  230.41177  366.00000    1.04382   22.15605 2726.00000
 1037.75000 2361.37256 22124.99805 5494.30225  230.41158  366.00000    1.04382   22.15618 2726.00000
 1037.87500 2361.36963 22124.99805 5494.30225  230.41139  366.00000    1.04382   22.15631 2726.00000
 1038.00000 2361.36646 22124.99805 5494.30225  230.41121  366.00000    1.04382   22.15644 2726.00000
 1038.12500 2361.36426 22124.99805 5494.30225  230.41103  369.00000    1.04382   22.15657 2729.00000
 1038.25000 2361.36328 22124.99805 5494.30225  230.41084  369.00000    1.04382   22.15670 2729.00000
 1038.37500 2361.36279 22124.99805 5494.30225  230.41064  369.00000    1.04382   22.15683 2729.00000
 1038.50000 2361.36230 22124.99805 5494.30225  230.41045  369.00000    1.04382   22.15697 2729.00000
 1038.62500 2361.36084 22124.99805 5494.30225  230.41025  369.00000    1.04382   22.15710 2729.00000
 1038.75000 2361.35864 22124.99805 5494.30225  230.41003  369.00000    1.04382   22.15723 2729.00000
 1038.87500 2361.35620 22124.99805 5494.30225  230.40984  369.00000    1.04382   22.15736 2729.00000
 1039.00000 2361.35400 22124.99805 5494.30225  230.40962  369.00000    1.04382   22.15749 2729.00000
 1039.12500 2361.35303 22124.99805 5494.30225  230.40944  369.00000    1.04382   22.15762 2729.00000
 1039.25000 2361.35229 22124.99805 5494.30225  230.40926  369.00000    1.04382   22.15775 2729.00000
 1039.37500 2361.35132 22124.99805 5494.30225  230.40904  369.00000    1.04382   22.15788 2729.00000
 1039.50000 2361.34961 22124.99805 5494.30225  230.40884  369.00000    1.04382   22.15801 2729.00000
 1039.62500 2361.34644 22124.99805 5494.30225  230.40863  369.00000    1.04382   22.15814 2729.00000
 1039.75000 2361.34180 22124.99805 5494.30225  230.40843  369.00000    1.04382   22.15827 2729.00000
 1039.87500 2361.33740 22124.99805 5494.30225  230.40823  375.00000    1.04382   22.15840 2735.00000
