~Version ---------------------------------------------------
VERS. 2.0 : CWLS log ASCII Standard -VERSION 2.0
WRAP.  NO : One line per frame
~Well ------------------------------------------------------
STRT.S                         0.0 : Starting Time
STOP.S                     15391.0 : Ending Time
STEP.S                       0.125 : Level Spacing
NULL.                      -999.25 : Absent Value
COMP.  BATTELLE MEMORIAL INSTITUTE : Company
WELL.             FORGE 16B(78)-32 : Well
FLD .                        FORGE : Field
LOC .                              : Location
CNTY.                       BEAVER : County
STAT.                         UTAH : State
CTRY.                          USA : Country
SRVC.                 Baker Hughes : Service Company
DATE. Wed Jun 28 07:03:31 2023 Z-7 : Log Date
API .                              : API Number
UWI .                              : Unique Well ID
DEPTHMD .ft          5494.27930    : Measured Depth
DEPTHTVD .ft            5494.00    : True Vertical Depth
~Curve Information -----------------------------------------
TIME   .S    99 995 99  1 : System time since record start
APQJ   .psi  99 995 99  1 : 1970JB Quartzdyne gauge pressure
CPTV   .cm3  99 995 99  1 : Cumulative pump-through volume
DBDEPTH.ft   99 995 99  1 : Depth of 1970DB straddle packer
RTDQJ  .degF 99 995 99  1 : 1970JB Quartzdyne pressure gauge temperature
SPEP   .psi  99 995 99  1 : Packer element pressure
PTFRC  .cc/s 99 995 99  1 : Rate (injection and flowback)
CPTVF  .L    99 995 99  1 : Continuous pump-through volume
ASPEP  .psi  99 995 99  1 : Absolute packer element pressure
~Params ----------------------------------------------------
LATI.DEG 0.0 : Latitude
LONG.DEG 0.0 : Longitude
~Other -----------------------------------------------------
~ASCII -----------------------------------------------------
# ...
 7210.00000 3132.21191 33147.32422 5494.30225  230.26807 1338.00000    0.00000   33.14975 3698.00000
 7210.12500 3132.20508 33147.32422 5494.30225  230.26808 1338.00000    0.00000   33.14975 3698.00000
 7210.25000 3132.19873 33147.32422 5494.30225  230.26811 1338.00000    0.00000   33.14975 3698.00000
 7210.37500 3132.19238 33147.32422 5494.30225  230.26814 1338.00000    0.00000   33.14975 3698.00000
 7210.50000 3132.18604 33147.32422 5494.30225  230.26819 1338.00000    0.00000   33.14976 3698.00000
 7210.62500 3132.18018 33147.32422 5494.30225  230.26822 1338.00000    0.00000   33.14976 3698.00000
 7210.75000 3132.17432 33147.32422 5494.30225  230.26826 1338.00000    0.00000   33.14976 3698.00000
 7210.87500 3132.16846 33147.32422 5494.30225  230.26831 1341.00000    0.00000   33.14976 3701.00000
 7211.00000 3132.16235 33147.32422 5494.30225  230.26836 1341.00000    0.00000   33.14976 3701.00000
 7211.12500 3132.15601 33147.32422 5494.30225  230.26839 1341.00000    0.00000   33.14976 3701.00000
 7211.25000 3132.14941 33147.32422 5494.30225  230.26842 1341.00000    0.00000   33.14976 3701.00000
 7211.37500 3132.14355 33147.32422 5494.30225  230.26845 1341.00000    0.00000   33.14976 3701.00000
 7211.50000 3132.13745 33147.32422 5494.30225  230.26849 1341.00000    0.00000   33.14976 3701.00000
 7211.62500 3132.13110 33147.32422 5494.30225  230.26855 1341.00000    0.00000   33.14976 3701.00000
 7211.75000 3132.12524 33147.32422 5494.30225  230.26859 1341.00000    0.00000   33.14976 3701.00000
 7211.87500 3132.11914 33147.32422 5494.30225  230.26863 1341.00000    0.00000   33.14976 3701.00000
 7212.00000 3132.11304 33147.32422 5494.30225  230.26865 1341.00000    0.00000   33.14976 3701.00000
 7212.12500 3132.10669 33147.32422 5494.30225  230.26866 1341.00000    0.00000   33.14976 3701.00000
 7212.25000 3132.10034 33147.32422 5494.30225  230.26871 1341.00000    0.00000   33.14976 3701.00000
 7212.37500 3132.09424 33147.32422 5494.30225  230.26874 1347.00000    0.00000   33.14976 3707.00000
 7212.50000 3132.08838 33147.32422 5494.30225  230.26877 1347.00000    0.00000   33.14977 3707.00000
 7212.62500 3132.08203 33147.32422 5494.30225  230.26880 1341.00000    0.00000   33.14977 3701.00000
 7212.75000 3132.07568 33147.32422 5494.30225  230.26886 1341.00000    0.00000   33.14977 3701.00000
 7212.87500 3132.06934 33147.32422 5494.30225  230.26889 1338.00000    0.00000   33.14977 3698.00000
 7213.00000 3132.06299 33147.32422 5494.30225  230.26894 1338.00000    0.00000   33.14977 3698.00000
 7213.12500 3132.05591 33147.32422 5494.30225  230.26897 1341.00000    0.00000   33.14977 3701.00000
 7213.25000 3132.04907 33147.32422 5494.30225  230.26901 1341.00000    0.00000   33.14977 3701.00000
 7213.37500 3132.04248 33147.32422 5494.30225  230.26904 1338.00000    0.00000   33.14977 3698.00000
 7213.50000 3132.03613 33147.32422 5494.30225  230.26907 1338.00000    0.00000   33.14977 3698.00000
 7213.62500 3132.02930 33147.32422 5494.30225  230.26913 1341.00000    0.00000   33.14977 3701.00000
 7213.75000 3132.02246 33147.32422 5494.30225  230.26918 1341.00000    0.00000   33.14977 3701.00000
 7213.87500 3132.01587 33147.32422 5494.30225  230.26921 1341.00000    0.00000   33.14977 3701.00000
 7214.00000 3132.00952 33147.32422 5494.30225  230.26926 1341.00000    0.00000   33.14977 3701.00000
 7214.12500 3132.00342 33147.32422 5494.30225  230.26929 1341.00000    0.00000   33.14977 3701.00000
 7214.25000 3131.99805 33147.32422 5494.30225  230.26932 1341.00000    0.00000   33.14977 3701.00000
 7214.37500 3131.99268 33147.32422 5494.30225  230.26935 1338.00000    0.00000   33.14977 3698.00000
 7214.50000 3131.98682 33147.32422 5494.30225  230.26941 1338.00000    0.00000   33.14977 3698.00000
 7214.62500 3131.98047 33147.32422 5494.30225  230.26944 1341.00000    0.00000   33.14978 3701.00000
 7214.75000 3131.97314 33147.32422 5494.30225  230.26947 1341.00000    0.00000   33.14978 3701.00000
 7214.87500 3131.96631 33147.32422 5494.30225  230.26949 1341.00000    0.00000   33.14978 3701.00000
 7215.00000 3131.95947 33147.32422 5494.30225  230.26952 1341.00000    0.00000   33.14978 3701.00000
 7215.12500 3131.95312 33147.32422 5494.30225  230.26955 1338.00000    0.00000   33.14978 3698.00000
 7215.25000 3131.94678 33147.32422 5494.30225  230.26959 1338.00000    0.00000   33.14978 3698.00000
 7215.37500 3131.94043 33147.32422 5494.30225  230.26965 1341.00000    0.00000   33.14978 3701.00000
 7215.50000 3131.93311 33147.32422 5494.30225  230.26968 1341.00000    0.00000   33.14978 3701.00000
 7215.62500 3131.92651 33147.32422 5494.30225  230.26974 1338.00000    0.00000   33.14978 3698.00000
 7215.75000 3131.91992 33147.32422 5494.30225  230.26976 1338.00000    0.00000   33.14978 3698.00000
 7215.87500 3131.91309 33147.32422 5494.30225  230.26982 1338.00000    0.00000   33.14978 3698.00000
 7216.00000 3131.90625 33147.32422 5494.30225  230.26985 1338.00000    0.00000   33.14978 3698.00000
 7216.12500 3131.89990 33147.32422 5494.30225  230.26988 1341.00000    0.00000   33.14978 3701.00000
 7216.25000 3131.89258 33147.32422 5494.30225  230.26990 1341.00000    0.00000   33.14978 3701.00000
 7216.37500 3131.88550 33147.32422 5494.30225  230.26996 1341.00000    0.00000   33.14978 3701.00000
 7216.50000 3131.87817 33147.32422 5494.30225  230.26997 1341.00000    0.00000   33.14978 3701.00000
 7216.62500 3131.87061 33147.32422 5494.30225  230.26999 1338.00000    0.00000   33.14979 3698.00000
 7216.75000 3131.86328 33147.32422 5494.30225  230.27003 1338.00000    0.00000   33.14979 3698.00000
 7216.87500 3131.85596 33147.32422 5494.30225  230.27008 1338.00000    0.00000   33.14979 3698.00000
 7217.00000 3131.84839 33147.32422 5494.30225  230.27011 1338.00000    0.00000   33.14979 3698.00000
 7217.12500 3131.84131 33147.32422 5494.30225  230.27014 1341.00000    0.00000   33.14979 3701.00000
 7217.25000 3131.83398 33147.32422 5494.30225  230.27017 1341.00000    0.00000   33.14979 3701.00000
 7217.37500 3131.82666 33147.32422 5494.30225  230.27023 1341.00000    0.00000   33.14979 3701.00000
 7217.50000 3131.81982 33147.32422 5494.30225  230.27028 1341.00000    0.00000   33.14979 3701.00000
 7217.62500 3131.81299 33147.32422 5494.30225  230.27031 1338.00000    0.00000   33.14979 3698.00000
 7217.75000 3131.80615 33147.32422 5494.30225  230.27034 1338.00000    0.00000   33.14979 3698.00000
 7217.87500 3131.79932 33147.32422 5494.30225  230.27037 1341.00000    0.00000   33.14979 3701.00000
 7218.00000 3131.79199 33147.32422 5494.30225  230.27040 1341.00000    0.00000   33.14979 3701.00000
 7218.12500 3131.78516 33147.32422 5494.30225  230.27043 1341.00000    0.00000   33.14979 3701.00000
 7218.25000 3131.77783 33147.32422 5494.30225  230.27048 1341.00000    0.00000   33.14979 3701.00000
 7218.37500 3131.77100 33147.32422 5494.30225  230.27054 1338.00000    0.00000   33.14979 3698.00000
 7218.50000 3131.76416 33147.32422 5494.30225  230.27057 1338.00000    0.00000   33.14979 3698.00000
 7218.62500 3131.75732 33147.32422 5494.30225  230.27061 1338.00000    0.00000   33.14979 3698.00000
 7218.75000 3131.75098 33147.32422 5494.30225  230.27068 1338.00000    0.00000   33.14980 3698.00000
 7218.87500 3131.74487 33147.32422 5494.30225  230.27069 1338.00000    0.00000   33.14980 3698.00000
 7219.00000 3131.73877 33147.32422 5494.30225  230.27072 1338.00000    0.00000   33.14980 3698.00000
 7219.12500 3131.73242 33147.32422 5494.30225  230.27077 1341.00000    0.00000   33.14980 3701.00000
 7219.25000 3131.72510 33147.32422 5494.30225  230.27081 1341.00000    0.00000   33.14980 3701.00000
 7219.37500 3131.71802 33147.32422 5494.30225  230.27083 1341.00000    0.00000   33.14980 3701.00000
 7219.50000 3131.71094 33147.32422 5494.30225  230.27089 1341.00000    0.00000   33.14980 3701.00000
 7219.62500 3131.70459 33147.32422 5494.30225  230.27094 1341.00000    0.00000   33.14980 3701.00000
 7219.75000 3131.69849 33147.32422 5494.30225  230.27097 1341.00000    0.00000   33.14980 3701.00000
 7219.87500 3131.69238 33147.32422 5494.30225  230.27097 1341.00000    0.00000   33.14980 3701.00000
