~Version ---------------------------------------------------
VERS. 2.0 : CWLS log ASCII Standard -VERSION 2.0
WRAP.  NO : One line per frame
~Well ------------------------------------------------------
STRT.S                         0.0 : Starting Time
STOP.S                     15391.0 : Ending Time
STEP.S                       0.125 : Level Spacing
NULL.                      -999.25 : Absent Value
COMP.  BATTELLE MEMORIAL INSTITUTE : Company
WELL.             FORGE 16B(78)-32 : Well
FLD .                        FORGE : Field
LOC .                              : Location
CNTY.                       BEAVER : County
STAT.                         UTAH : State
CTRY.                          USA : Country
SRVC.                 Baker Hughes : Service Company
DATE. Wed Jun 28 07:03:31 2023 Z-7 : Log Date
API .                              : API Number
UWI .                              : Unique Well ID
DEPTHMD .ft          5494.27930    : Measured Depth
DEPTHTVD .ft            5494.00    : True Vertical Depth
~Curve Information -----------------------------------------
TIME   .S    99 995 99  1 : System time since record start
APQJ   .psi  99 995 99  1 : 1970JB Quartzdyne gauge pressure
CPTV   .cm3  99 995 99  1 : Cumulative pump-through volume
DBDEPTH.ft   99 995 99  1 : Depth of 1970DB straddle packer
RTDQJ  .degF 99 995 99  1 : 1970JB Quartzdyne pressure gauge temperature
SPEP   .psi  99 995 99  1 : Packer element pressure
PTFRC  .cc/s 99 995 99  1 : Rate (injection and flowback)
CPTVF  .L    99 995 99  1 : Continuous pump-through volume
ASPEP  .psi  99 995 99  1 : Absolute packer element pressure
~Params ----------------------------------------------------
LATI.DEG 0.0 : Latitude
LONG.DEG 0.0 : Longitude
~Other -----------------------------------------------------
~ASCII -----------------------------------------------------
# ...
 11303.50000 2474.77466 36757.73047 5494.28906  231.22401  492.00000    0.00000   36.99140 2852.00000
 11303.62500 2474.78711 36757.73047 5494.28906  231.22403  492.00000    0.00000   36.99145 2852.00000
 11303.75000 2474.79932 36757.73047 5494.28906  231.22406  492.00000    0.00000   36.99150 2852.00000
 11303.87500 2474.81104 36757.73047 5494.28906  231.22409  498.00000    0.00000   36.99155 2858.00000
 11304.00000 2474.82227 36757.73047 5494.28906  231.22412  498.00000    0.00000   36.99160 2858.00000
 11304.12500 2474.83423 36757.73047 5494.28906  231.22417  492.00000    0.00000   36.99165 2852.00000
 11304.25000 2474.84668 36757.73047 5494.28906  231.22420  492.00000    0.00000   36.99170 2852.00000
 11304.37500 2474.85962 36757.73047 5494.28906  231.22423  486.00000    0.00000   36.99175 2846.00000
 11304.50000 2474.87329 36757.73047 5494.28906  231.22426  486.00000    0.00000   36.99180 2846.00000
 11304.62500 2474.88770 36757.73047 5494.28906  231.22427  498.00000    0.00000   36.99185 2858.00000
 11304.75000 2474.90234 36757.73047 5494.28906  231.22430  498.00000    0.00000   36.99190 2858.00000
 11304.87500 2474.91724 36757.73047 5494.28906  231.22433  492.00000    0.00000   36.99195 2852.00000
 11305.00000 2474.93213 36757.73047 5494.28906  231.22438  492.00000    0.00000   36.99200 2852.00000
 11305.12500 2474.94751 36757.73047 5494.28906  231.22440  498.00000    0.00000   36.99205 2858.00000
 11305.25000 2474.96338 36757.73047 5494.28906  231.22443  498.00000    0.00000   36.99210 2858.00000
 11305.37500 2474.97925 36757.73047 5494.28906  231.22447  498.00000    0.00000   36.99215 2858.00000
 11305.50000 2474.99512 36757.73047 5494.28906  231.22450  498.00000    0.00000   36.99220 2858.00000
 11305.62500 2475.01050 36757.73047 5494.28906  231.22458  492.00000    0.00000   36.99225 2852.00000
 11305.75000 2475.02539 36757.73047 5494.28906  231.22459  492.00000    0.00000   36.99230 2852.00000
 11305.87500 2475.04004 36757.73047 5494.28906  231.22464  492.00000    0.00000   36.99235 2852.00000
 11306.00000 2475.05444 36757.73047 5494.28906  231.22467  492.00000    0.00000   36.99240 2852.00000
 11306.12500 2475.06860 36757.73047 5494.28906  231.22470  498.00000    0.00000   36.99245 2858.00000
 11306.25000 2475.08228 36757.73047 5494.28906  231.22472  498.00000    0.00000   36.99250 2858.00000
 11306.37500 2475.09521 36757.73047 5494.28906  231.22475  498.00000    0.00000   36.99255 2858.00000
 11306.50000 2475.10840 36757.73047 5494.28906  231.22481  498.00000    0.00000   36.99260 2858.00000
 11306.62500 2475.12085 36757.73047 5494.28906  231.22484  498.00000    0.00000   36.99265 2858.00000
 11306.75000 2475.13403 36757.73047 5494.28906  231.22488  498.00000    0.00000   36.99270 2858.00000
 11306.87500 2475.14819 36757.73047 5494.28906  231.22491  498.00000    0.00000   36.99275 2858.00000
 11307.00000 2475.16309 36757.73047 5494.28906  231.22493  498.00000    0.00000   36.99280 2858.00000
 11307.12500 2475.17871 36757.73047 5494.28906  231.22498  498.00000    0.00000   36.99285 2858.00000
 11307.25000 2475.19458 36757.73047 5494.28906  231.22499  498.00000    0.00000   36.99290 2858.00000
 11307.37500 2475.21094 36757.73047 5494.28906  231.22504  498.00000    0.00000   36.99295 2858.00000
 11307.50000 2475.22729 36757.73047 5494.28906  231.22505  498.00000    0.00000   36.99300 2858.00000
 11307.62500 2475.24341 36757.73047 5494.28906  231.22511  498.00000    0.00000   36.99305 2858.00000
 11307.75000 2475.25928 36757.73047 5494.28906  231.22514  498.00000    0.00000   36.99310 2858.00000
 11307.87500 2475.27490 36757.73047 5494.28906  231.22517  498.00000    0.00000   36.99315 2858.00000
 11308.00000 2475.29053 36757.73047 5494.28906  231.22522  498.00000    0.00000   36.99320 2858.00000
 11308.12500 2475.30664 36757.73047 5494.28906  231.22525  498.00000    0.00000   36.99325 2858.00000
 11308.25000 2475.32251 36757.73047 5494.28906  231.22530  498.00000    0.00000   36.99330 2858.00000
 11308.37500 2475.33838 36757.73047 5494.28906  231.22534  498.00000    0.00000   36.99335 2858.00000
 11308.50000 2475.35400 36757.73047 5494.28906  231.22539  498.00000    0.00000   36.99340 2858.00000
 11308.62500 2475.36938 36757.73047 5494.28906  231.22542  498.00000    0.00000   36.99345 2858.00000
 11308.75000 2475.38452 36757.73047 5494.28906  231.22543  498.00000    0.00000   36.99350 2858.00000
 11308.87500 2475.39941 36757.73047 5494.28906  231.22546  498.00000    0.00000   36.99355 2858.00000
 11309.00000 2475.41431 36757.73047 5494.28906  231.22548  498.00000    0.00000   36.99360 2858.00000
 11309.12500 2475.42920 36757.73047 5494.28906  231.22549  498.00000    0.00000   36.99365 2858.00000
 11309.25000 2475.44409 36757.73047 5494.28906  231.22554  498.00000    0.00000   36.99370 2858.00000
 11309.37500 2475.45923 36757.73047 5494.28906  231.22556  498.00000    0.00000   36.99375 2858.00000
 11309.50000 2475.47388 36757.73047 5494.28906  231.22560  498.00000    0.00000   36.99380 2858.00000
 11309.62500 2475.48877 36757.73047 5494.28906  231.22563  492.00000    0.00000   36.99385 2852.00000
 11309.75000 2475.50342 36757.73047 5494.28906  231.22566  492.00000    0.00000   36.99390 2852.00000
 11309.87500 2475.51831 36757.73047 5494.28906  231.22571  477.00000    0.00000   36.99395 2837.00000
 11310.00000 2475.53320 36757.73047 5494.28906  231.22575  477.00000    0.00000   36.99400 2837.00000
 11310.12500 2475.54761 36757.73047 5494.28906  231.22578  486.00000    0.00000   36.99405 2846.00000
 11310.25000 2475.56104 36757.73047 5494.28906  231.22581  486.00000    0.00000   36.99410 2846.00000
 11310.37500 2475.57373 36757.73047 5494.28906  231.22588  492.00000    0.00000   36.99415 2852.00000
 11310.50000 2475.58594 36757.73047 5494.28906  231.22591  492.00000    0.00000   36.99420 2852.00000
 11310.62500 2475.59790 36757.73047 5494.28906  231.22594  492.00000    0.00000   36.99425 2852.00000
 11310.75000 2475.61035 36757.73047 5494.28906  231.22595  492.00000    0.00000   36.99430 2852.00000
 11310.87500 2475.62305 36757.73047 5494.28906  231.22598  492.00000    0.00000   36.99435 2852.00000
 11311.00000 2475.63647 36757.73047 5494.28906  231.22600  492.00000    0.00000   36.99440 2852.00000
 11311.12500 2475.64990 36757.73047 5494.28906  231.22604  492.00000    0.00000   36.99445 2852.00000
 11311.25000 2475.66357 36757.73047 5494.28906  231.22609  492.00000    0.00000   36.99450 2852.00000
 11311.37500 2475.67725 36757.73047 5494.28906  231.22609  498.00000    0.00000   36.99455 2858.00000
 11311.50000 2475.69067 36757.73047 5494.28906  231.22615  498.00000    0.00000   36.99460 2858.00000
 11311.62500 2475.70435 36757.73047 5494.28906  231.22621  498.00000    0.00000   36.99465 2858.00000
 11311.75000 2475.71875 36757.73047 5494.28906  231.22624  498.00000    0.00000   36.99470 2858.00000
 11311.87500 2475.73291 36757.73047 5494.28906  231.22629  498.00000    0.00000   36.99475 2858.00000
 11312.00000 2475.74707 36757.73047 5494.28906  231.22632  498.00000    0.00000   36.99480 2858.00000
 11312.12500 2475.76196 36757.73047 5494.28906  231.22636  498.00000    0.00000   36.99485 2858.00000
 11312.25000 2475.77710 36757.73047 5494.28906  231.22636  498.00000    0.00000   36.99490 2858.00000
 11312.37500 2475.79224 36757.73047 5494.28906  231.22639  498.00000    0.00000   36.99495 2858.00000
 11312.50000 2475.80762 36757.73047 5494.28906  231.22643  498.00000    0.00000   36.99500 2858.00000
 11312.62500 2475.82227 36757.73047 5494.28906  231.22647  501.00000    0.00000   36.99505 2861.00000
 11312.75000 2475.83716 36757.73047 5494.28906  231.22650  501.00000    0.00000   36.99510 2861.00000
 11312.87500 2475.85132 36757.73047 5494.28906  231.22653  501.00000    0.00000   36.99515 2861.00000
 11313.00000 2475.86548 36757.73047 5494.28906  231.22656  501.00000    0.00000   36.99520 2861.00000
 11313.12500 2475.87964 36757.73047 5494.28906  231.22659  498.00000    0.00000   36.99525 2858.00000
 11313.25000 2475.89404 36757.73047 5494.28906  231.22662  498.00000    0.00000   36.99530 2858.00000
