~Version ---------------------------------------------------
VERS. 2.0 : CWLS log ASCII Standard -VERSION 2.0
WRAP.  NO : One line per frame
~Well ------------------------------------------------------
STRT.S                         0.0 : Starting Time
STOP.S                     15391.0 : Ending Time
STEP.S                       0.125 : Level Spacing
NULL.                      -999.25 : Absent Value
COMP.  BATTELLE MEMORIAL INSTITUTE : Company
WELL.             FORGE 16B(78)-32 : Well
FLD .                        FORGE : Field
LOC .                              : Location
CNTY.                       BEAVER : County
STAT.                         UTAH : State
CTRY.                          USA : Country
SRVC.                 Baker Hughes : Service Company
DATE. Wed Jun 28 07:03:31 2023 Z-7 : Log Date
API .                              : API Number
UWI .                              : Unique Well ID
DEPTHMD .ft          5494.27930    : Measured Depth
DEPTHTVD .ft            5494.00    : True Vertical Depth
~Curve Information -----------------------------------------
TIME   .S    99 995 99  1 : System time since record start
APQJ   .psi  99 995 99  1 : 1970JB Quartzdyne gauge pressure
CPTV   .cm3  99 995 99  1 : Cumulative pump-through volume
DBDEPTH.ft   99 995 99  1 : Depth of 1970DB straddle packer
RTDQJ  .degF 99 995 99  1 : 1970JB Quartzdyne pressure gauge temperature
SPEP   .psi  99 995 99  1 : Packer element pressure
PTFRC  .cc/s 99 995 99  1 : Rate (injection and flowback)
CPTVF  .L    99 995 99  1 : Continuous pump-through volume
ASPEP  .psi  99 995 99  1 : Absolute packer element pressure
~Params ----------------------------------------------------
LATI.DEG 0.0 : Latitude
LONG.DEG 0.0 : Longitude
~Other -----------------------------------------------------
~ASCII -----------------------------------------------------
# ...
 6180.00000 3351.53076 30199.32422 5494.30225  229.94823 1551.00000    5.44166   30.27891 3911.00000
 6180.12500 3351.57812 30199.32422 5494.30225  229.94823 1548.00000    5.44166   30.27959 3908.00000
 6180.25000 3351.62549 30199.32422 5494.30225  229.94824 1548.00000    5.44166   30.28027 3908.00000
 6180.37500 3351.67188 30199.32422 5494.30225  229.94826 1548.00000    5.44166   30.28095 3908.00000
 6180.50000 3351.71851 30199.32422 5494.30225  229.94832 1548.00000    5.44166   30.28163 3908.00000
 6180.62500 3351.76514 30199.32422 5494.30225  229.94836 1551.00000    5.44166   30.28231 3911.00000
 6180.75000 3351.81250 30199.32422 5494.30225  229.94841 1551.00000    5.44166   30.28299 3911.00000
 6180.87500 3351.86035 30199.32422 5494.30225  229.94850 1551.00000    5.44166   30.28367 3911.00000
 6181.00000 3351.90820 30199.32422 5494.30225  229.94852 1551.00000    5.44166   30.28435 3911.00000
 6181.12500 3351.95654 30199.32422 5494.30225  229.94855 1551.00000    5.44166   30.28503 3911.00000
 6181.25000 3352.00488 30199.32422 5494.30225  229.94858 1551.00000    5.44166   30.28571 3911.00000
 6181.37500 3352.05322 30199.32422 5494.30225  229.94861 1551.00000    5.44166   30.28639 3911.00000
 6181.50000 3352.10156 30199.32422 5494.30225  229.94862 1551.00000    5.44166   30.28707 3911.00000
 6181.62500 3352.14941 30199.32422 5494.30225  229.94865 1551.00000    5.44166   30.28775 3911.00000
 6181.75000 3352.19604 30199.32422 5494.30225  229.94868 1551.00000    5.44166   30.28843 3911.00000
 6181.87500 3352.24219 30199.32422 5494.30225  229.94872 1551.00000    5.44166   30.28911 3911.00000
 6182.00000 3352.28662 30199.32422 5494.30225  229.94875 1551.00000    5.44166   30.28979 3911.00000
 6182.12500 3352.33057 30199.32422 5494.30225  229.94878 1551.00000    5.44166   30.29047 3911.00000
 6182.25000 3352.37280 30199.32422 5494.30225  229.94879 1551.00000    5.44166   30.29115 3911.00000
 6182.37500 3352.41382 30199.32422 5494.30225  229.94885 1557.00000    5.44166   30.29183 3917.00000
 6182.50000 3352.45361 30199.32422 5494.30225  229.94891 1557.00000    5.44166   30.29251 3917.00000
 6182.62500 3352.49268 30199.32422 5494.30225  229.94894 1557.00000    5.44166   30.29319 3917.00000
 6182.75000 3352.53027 30199.32422 5494.30225  229.94901 1557.00000    5.44166   30.29387 3917.00000
 6182.87500 3352.56787 30199.32422 5494.30225  229.94905 1557.00000    5.44166   30.29455 3917.00000
 6183.00000 3352.60498 30199.32422 5494.30225  229.94910 1557.00000    5.44166   30.29523 3917.00000
 6183.12500 3352.64209 30199.32422 5494.30225  229.94913 1557.00000    5.44166   30.29591 3917.00000
 6183.25000 3352.67871 30199.32422 5494.30225  229.94916 1557.00000    5.44166   30.29659 3917.00000
 6183.37500 3352.71484 30199.32422 5494.30225  229.94920 1551.00000    5.44166   30.29727 3911.00000
 6183.50000 3352.75098 30199.32422 5494.30225  229.94923 1551.00000    5.44166   30.29795 3911.00000
 6183.62500 3352.78711 30199.32422 5494.30225  229.94923 1551.00000    5.44166   30.29863 3911.00000
 6183.75000 3352.82373 30199.32422 5494.30225  229.94926 1551.00000    5.44166   30.29931 3911.00000
 6183.87500 3352.86133 30199.32422 5494.30225  229.94930 1551.00000    5.44166   30.30000 3911.00000
 6184.00000 3352.89990 30199.32422 5494.30225  229.94934 1551.00000    5.44166   30.30068 3911.00000
 6184.12500 3352.93896 30199.32422 5494.30225  229.94937 1551.00000    5.44166   30.30136 3911.00000
 6184.25000 3352.97778 30199.32422 5494.30225  229.94943 1551.00000    5.44166   30.30204 3911.00000
 6184.37500 3353.01538 30199.32422 5494.30225  229.94946 1551.00000    5.44166   30.30272 3911.00000
 6184.50000 3353.05225 30199.32422 5494.30225  229.94951 1551.00000    5.44166   30.30340 3911.00000
 6184.62500 3353.08887 30199.32422 5494.30225  229.94954 1551.00000    5.44166   30.30408 3911.00000
 6184.75000 3353.12451 30199.32422 5494.30225  229.94957 1551.00000    5.44166   30.30476 3911.00000
 6184.87500 3353.15967 30199.32422 5494.30225  229.94960 1551.00000    5.44166   30.30544 3911.00000
 6185.00000 3353.19385 30199.32422 5494.30225  229.94963 1551.00000    5.44166   30.30612 3911.00000
 6185.12500 3353.22778 30199.32422 5494.30225  229.94971 1551.00000    5.44166   30.30680 3911.00000
 6185.25000 3353.26172 30199.32422 5494.30225  229.94975 1551.00000    5.44166   30.30748 3911.00000
 6185.37500 3353.29688 30199.32422 5494.30225  229.94975 1557.00000    5.44166   30.30816 3917.00000
 6185.50000 3353.33301 30199.32422 5494.30225  229.94978 1557.00000    5.44166   30.30884 3917.00000
 6185.62500 3353.36963 30199.32422 5494.30225  229.94981 1551.00000    5.44166   30.30952 3911.00000
 6185.75000 3353.40576 30199.32422 5494.30225  229.94984 1551.00000    5.44166   30.31020 3911.00000
 6185.87500 3353.43994 30199.32422 5494.30225  229.94987 1551.00000    5.44166   30.31088 3911.00000
 6186.00000 3353.47217 30199.32422 5494.30225  229.94992 1551.00000    5.44166   30.31156 3911.00000
 6186.12500 3353.50244 30199.32422 5494.30225  229.94995 1557.00000    5.44166   30.31224 3917.00000
 6186.25000 3353.53223 30199.32422 5494.30225  229.95000 1557.00000    5.44166   30.31292 3917.00000
 6186.37500 3353.56104 30199.32422 5494.30225  229.95003 1551.00000    5.44166   30.31360 3911.00000
 6186.50000 3353.59033 30199.32422 5494.30225  229.95003 1551.00000    5.44166   30.31428 3911.00000
 6186.62500 3353.62012 30199.32422 5494.30225  229.95006 1551.00000    5.44166   30.31496 3911.00000
 6186.75000 3353.65063 30199.32422 5494.30225  229.95009 1551.00000    5.44166   30.31564 3911.00000
 6186.87500 3353.68188 30199.32422 5494.30225  229.95013 1551.00000    5.44166   30.31632 3911.00000
 6187.00000 3353.71362 30199.32422 5494.30225  229.95016 1551.00000    5.44166   30.31700 3911.00000
 6187.12500 3353.74512 30199.32422 5494.30225  229.95023 1557.00000    5.44166   30.31768 3917.00000
 6187.25000 3353.77661 30199.32422 5494.30225  229.95026 1557.00000    5.44166   30.31836 3917.00000
 6187.37500 3353.80762 30199.32422 5494.30225  229.95029 1551.00000    5.44166   30.31904 3911.00000
 6187.50000 3353.83813 30199.32422 5494.30225  229.95032 1551.00000    5.44166   30.31972 3911.00000
 6187.62500 3353.86792 30199.32422 5494.30225  229.95036 1551.00000    5.44166   30.32040 3911.00000
 6187.75000 3353.89697 30199.32422 5494.30225  229.95042 1551.00000    5.44166   30.32108 3911.00000
 6187.87500 3353.92480 30199.32422 5494.30225  229.95047 1557.00000    5.44166   30.32176 3917.00000
 6188.00000 3353.95166 30199.32422 5494.30225  229.95050 1557.00000    5.44166   30.32244 3917.00000
 6188.12500 3353.97803 30199.32422 5494.30225  229.95053 1557.00000    5.44166   30.32312 3917.00000
 6188.25000 3354.00488 30199.32422 5494.30225  229.95056 1557.00000    5.44166   30.32380 3917.00000
 6188.37500 3354.03271 30199.32422 5494.30225  229.95058 1551.00000    5.44166   30.32448 3911.00000
 6188.50000 3354.06104 30199.32422 5494.30225  229.95061 1551.00000    5.44166   30.32516 3911.00000
 6188.62500 3354.08984 30199.32422 5494.30225  229.95064 1551.00000    5.44166   30.32584 3911.00000
 6188.75000 3354.11816 30199.32422 5494.30225  229.95067 1551.00000    5.44166   30.32652 3911.00000
 6188.87500 3354.14551 30199.32422 5494.30225  229.95070 1551.00000    5.44166   30.32720 3911.00000
 6189.00000 3354.17188 30199.32422 5494.30225  229.95071 1551.00000    5.44166   30.32788 3911.00000
 6189.12500 3354.19629 30199.32422 5494.30225  229.95074 1557.00000    5.44166   30.32856 3917.00000
 6189.25000 3354.21973 30199.32422 5494.30225  229.95078 1557.00000    5.44166   30.32924 3917.00000
 6189.37500 3354.24170 30199.32422 5494.30225  229.95085 1551.00000    5.44166   30.32992 3911.00000
 6189.50000 3354.26318 30199.32422 5494.30225  229.95088 1551.00000    5.44166   30.33060 3911.00000
 6189.62500 3354.28418 30199.32422 5494.30225  229.95097 1557.00000    5.44166   30.33128 3917.00000
 6189.75000 3354.30469 30199.32422 5494.30225  229.95099 1557.00000    5.44166   30.33196 3917.00000
 6189.87500 3354.32568 30199.32422 5494.30225  229.95102 1557.00000    5.44166   30.33264 3917.00000
