~Version ---------------------------------------------------
VERS. 2.0 : CWLS log ASCII Standard -VERSION 2.0
WRAP.  NO : One line per frame
~Well ------------------------------------------------------
STRT.S                         0.0 : Starting Time
STOP.S                     15391.0 : Ending Time
STEP.S                       0.125 : Level Spacing
NULL.                      -999.25 : Absent Value
COMP.  BATTELLE MEMORIAL INSTITUTE : Company
WELL.             FORGE 16B(78)-32 : Well
FLD .                        FORGE : Field
LOC .                              : Location
CNTY.                       BEAVER : County
STAT.                         UTAH : State
CTRY.                          USA : Country
SRVC.                 Baker Hughes : Service Company
DATE. Wed Jun 28 07:03:31 2023 Z-7 : Log Date
API .                              : API Number
UWI .                              : Unique Well ID
DEPTHMD .ft          5494.27930    : Measured Depth
DEPTHTVD .ft            5494.00    : True Vertical Depth
~Curve Information -----------------------------------------
TIME   .S    99 995 99  1 : System time since record start
APQJ   .psi  99 995 99  1 : 1970JB Quartzdyne gauge pressure
CPTV   .cm3  99 995 99  1 : Cumulative pump-through volume
DBDEPTH.ft   99 995 99  1 : Depth of 1970DB straddle packer
RTDQJ  .degF 99 995 99  1 : 1970JB Quartzdyne pressure gauge temperature
SPEP   .psi  99 995 99  1 : Packer element pressure
PTFRC  .cc/s 99 995 99  1 : Rate (injection and flowback)
CPTVF  .L    99 995 99  1 : Continuous pump-through volume
ASPEP  .psi  99 995 99  1 : Absolute packer element pressure
~Params ----------------------------------------------------
LATI.DEG 0.0 : Latitude
LONG.DEG 0.0 : Longitude
~Other -----------------------------------------------------
~ASCII -----------------------------------------------------
# ...
 12320.62500 3270.03394 41849.72656 5494.28906  231.60896 1470.00000    5.44162   42.10004 3830.00000
 12320.75000 3270.05054 41849.72656 5494.28906  231.60902 1470.00000    5.44162   42.10072 3830.00000
 12320.87500 3270.06738 41849.72656 5494.28906  231.60909 1464.00000    5.44162   42.10140 3824.00000
 12321.00000 3270.08472 41849.72656 5494.28906  231.60913 1464.00000    5.44162   42.10208 3824.00000
 12321.12500 3270.10254 41849.72656 5494.28906  231.60919 1464.00000    5.44162   42.10276 3824.00000
 12321.25000 3270.11963 41849.72656 5494.28906  231.60922 1464.00000    5.44162   42.10344 3824.00000
 12321.37500 3270.13623 41849.72656 5494.28906  231.60924 1464.00000    5.44162   42.10412 3824.00000
 12321.50000 3270.15283 41849.72656 5494.28906  231.60927 1464.00000    5.44162   42.10480 3824.00000
 12321.62500 3270.16943 41849.72656 5494.28906  231.60930 1464.00000    5.44162   42.10548 3824.00000
 12321.75000 3270.18652 41849.72656 5494.28906  231.60934 1464.00000    5.44162   42.10616 3824.00000
 12321.87500 3270.20312 41849.72656 5494.28906  231.60941 1464.00000    5.44162   42.10684 3824.00000
 12322.00000 3270.21924 41849.72656 5494.28906  231.60947 1464.00000    5.44162   42.10752 3824.00000
 12322.12500 3270.23560 41849.72656 5494.28906  231.60954 1464.00000    5.44162   42.10820 3824.00000
 12322.25000 3270.25146 41849.72656 5494.28906  231.60957 1464.00000    5.44162   42.10888 3824.00000
 12322.37500 3270.26221 41849.72656 5494.28906  231.60963 1464.00000    5.44162   42.10956 3824.00000
 12322.50000 3270.23315 41849.72656 5494.28906  231.60966 1464.00000    5.44162   42.11024 3824.00000
 12322.62500 3270.08545 41849.72656 5494.28906  231.60973 1464.00000    5.44162   42.11092 3824.00000
 12322.75000 3269.73828 41849.72656 5494.28906  231.60977 1464.00000    5.44162   42.11160 3824.00000
 12322.87500 3269.15723 41849.72656 5494.28906  231.60982 1464.00000    5.44162   42.11228 3824.00000
 12323.00000 3268.38672 41849.72656 5494.28906  231.60988 1464.00000    5.44162   42.11297 3824.00000
 12323.12500 3267.55566 41849.72656 5494.28906  231.60992 1464.00000    5.44162   42.11365 3824.00000
 12323.25000 3266.84814 41849.72656 5494.28906  231.60999 1464.00000    5.44162   42.11433 3824.00000
 12323.37500 3266.42505 41849.72656 5494.28906  231.61005 1512.00000    5.44162   42.11501 3872.00000
 12323.50000 3266.36108 41849.72656 5494.28906  231.61009 1512.00000    5.44162   42.11569 3872.00000
 12323.62500 3266.61328 41849.72656 5494.28906  231.61015 1521.00000    5.44162   42.11637 3881.00000
 12323.75000 3267.05151 41849.72656 5494.28906  231.61018 1521.00000    5.44162   42.11705 3881.00000
 12323.87500 3267.52344 42117.72656 5494.28906  231.61020 1386.00000    5.44162   42.11773 3746.00000
 12324.00000 3267.92529 42117.72656 5494.28906  231.61023 1386.00000    5.44170   42.11841 3746.00000
 12324.12500 3268.20947 42117.72656 5494.28906  231.61026 1425.00000    5.44170   42.11909 3785.00000
 12324.25000 3268.37671 42117.72656 5494.28906  231.61032 1425.00000    5.44170   42.11977 3785.00000
 12324.37500 3268.46533 42117.72656 5494.28906  231.61037 1449.00000    5.44170   42.12045 3809.00000
 12324.50000 3268.52100 42117.72656 5494.28906  231.61043 1449.00000    5.44170   42.12113 3809.00000
 12324.62500 3268.56885 42117.72656 5494.28906  231.61047 1455.00000    5.44170   42.12181 3815.00000
 12324.75000 3268.61768 42117.72656 5494.28906  231.61052 1455.00000    5.44170   42.12249 3815.00000
 12324.87500 3268.66724 42117.72656 5494.28906  231.61058 1458.00000    5.44170   42.12317 3818.00000
 12325.00000 3268.71753 42117.72656 5494.28906  231.61063 1458.00000    5.44170   42.12385 3818.00000
 12325.12500 3268.76709 42117.72656 5494.28906  231.61067 1455.00000    5.44170   42.12453 3815.00000
 12325.25000 3268.81543 42117.72656 5494.28906  231.61073 1455.00000    5.44170   42.12521 3815.00000
 12325.37500 3268.86279 42117.72656 5494.28906  231.61078 1455.00000    5.44170   42.12589 3815.00000
 12325.50000 3268.90918 42117.72656 5494.28906  231.61084 1455.00000    5.44170   42.12657 3815.00000
 12325.62500 3268.95410 42117.72656 5494.28906  231.61089 1455.00000    5.44170   42.12725 3815.00000
 12325.75000 3268.99805 42117.72656 5494.28906  231.61092 1455.00000    5.44170   42.12793 3815.00000
 12325.87500 3269.04053 42117.72656 5494.28906  231.61095 1455.00000    5.44170   42.12861 3815.00000
 12326.00000 3269.08203 42117.72656 5494.28906  231.61101 1455.00000    5.44170   42.12929 3815.00000
 12326.12500 3269.12158 42117.72656 5494.28906  231.61104 1455.00000    5.44170   42.12997 3815.00000
 12326.25000 3269.16064 42117.72656 5494.28906  231.61108 1455.00000    5.44170   42.13065 3815.00000
 12326.37500 3269.19849 42117.72656 5494.28906  231.61111 1455.00000    5.44170   42.13133 3815.00000
 12326.50000 3269.23560 42117.72656 5494.28906  231.61116 1455.00000    5.44170   42.13201 3815.00000
 12326.62500 3269.27197 42117.72656 5494.28906  231.61122 1449.00000    5.44170   42.13269 3809.00000
 12326.75000 3269.30835 42117.72656 5494.28906  231.61125 1449.00000    5.44170   42.13337 3809.00000
 12326.87500 3269.34326 42117.72656 5494.28906  231.61133 1455.00000    5.44170   42.13405 3815.00000
 12327.00000 3269.37769 42117.72656 5494.28906  231.61139 1455.00000    5.44170   42.13473 3815.00000
 12327.12500 3269.41064 42117.72656 5494.28906  231.61145 1455.00000    5.44170   42.13541 3815.00000
 12327.25000 3269.44238 42117.72656 5494.28906  231.61151 1455.00000    5.44170   42.13609 3815.00000
 12327.37500 3269.47314 42117.72656 5494.28906  231.61156 1464.00000    5.44170   42.13677 3824.00000
 12327.50000 3269.50391 42117.72656 5494.28906  231.61160 1464.00000    5.44170   42.13745 3824.00000
 12327.62500 3269.53418 42117.72656 5494.28906  231.61163 1449.00000    5.44170   42.13813 3809.00000
 12327.75000 3269.56494 42117.72656 5494.28906  231.61166 1449.00000    5.44170   42.13881 3809.00000
 12327.87500 3269.59521 42117.72656 5494.28906  231.61169 1455.00000    5.44170   42.13949 3815.00000
 12328.00000 3269.62500 42117.72656 5494.28906  231.61171 1455.00000    5.44170   42.14017 3815.00000
 12328.12500 3269.65430 42117.72656 5494.28906  231.61177 1455.00000    5.44170   42.14085 3815.00000
 12328.25000 3269.68286 42117.72656 5494.28906  231.61183 1455.00000    5.44170   42.14153 3815.00000
 12328.37500 3269.71094 42117.72656 5494.28906  231.61185 1455.00000    5.44170   42.14221 3815.00000
 12328.50000 3269.73828 42117.72656 5494.28906  231.61192 1455.00000    5.44170   42.14289 3815.00000
 12328.62500 3269.76538 42117.72656 5494.28906  231.61197 1455.00000    5.44170   42.14357 3815.00000
 12328.75000 3269.79199 42117.72656 5494.28906  231.61205 1455.00000    5.44170   42.14425 3815.00000
 12328.87500 3269.81787 42117.72656 5494.28906  231.61211 1449.00000    5.44170   42.14494 3809.00000
 12329.00000 3269.84277 42117.72656 5494.28906  231.61214 1449.00000    5.44170   42.14562 3809.00000
 12329.12500 3269.86621 42117.72656 5494.28906  231.61218 1455.00000    5.44170   42.14630 3815.00000
 12329.25000 3269.89014 42117.72656 5494.28906  231.61224 1455.00000    5.44170   42.14698 3815.00000
 12329.37500 3269.91357 42117.72656 5494.28906  231.61226 1449.00000    5.44170   42.14766 3809.00000
 12329.50000 3269.93750 42117.72656 5494.28906  231.61232 1449.00000    5.44170   42.14834 3809.00000
 12329.62500 3269.96191 42117.72656 5494.28906  231.61238 1455.00000    5.44170   42.14902 3815.00000
 12329.75000 3269.98682 42117.72656 5494.28906  231.61243 1455.00000    5.44170   42.14970 3815.00000
 12329.87500 3270.01196 42117.72656 5494.28906  231.61247 1455.00000    5.44170   42.15038 3815.00000
 12330.00000 3270.03711 42117.72656 5494.28906  231.61252 1455.00000    5.44170   42.15106 3815.00000
 12330.12500 3270.06250 42117.72656 5494.28906  231.61256 1455.00000    5.44170   42.15174 3815.00000
 12330.25000 3270.08813 42117.72656 5494.28906  231.61263 1455.00000    5.44170   42.15242 3815.00000
 12330.37500 3270.11377 42117.72656 5494.28906  231.61267 1458.00000    5.44170   42.15310 3818.00000
