~Version ---------------------------------------------------
VERS. 2.0 : CWLS log ASCII Standard -VERSION 2.0
WRAP.  NO : One line per frame
~Well ------------------------------------------------------
STRT.S                         0.0 : Starting Time
STOP.S                     15391.0 : Ending Time
STEP.S                       0.125 : Level Spacing
NULL.                      -999.25 : Absent Value
COMP.  BATTELLE MEMORIAL INSTITUTE : Company
WELL.             FORGE 16B(78)-32 : Well
FLD .                        FORGE : Field
LOC .                              : Location
CNTY.                       BEAVER : County
STAT.                         UTAH : State
CTRY.                          USA : Country
SRVC.                 Baker Hughes : Service Company
DATE. Wed Jun 28 07:03:31 2023 Z-7 : Log Date
API .                              : API Number
UWI .                              : Unique Well ID
DEPTHMD .ft          5494.27930    : Measured Depth
DEPTHTVD .ft            5494.00    : True Vertical Depth
~Curve Information -----------------------------------------
TIME   .S    99 995 99  1 : System time since record start
APQJ   .psi  99 995 99  1 : 1970JB Quartzdyne gauge pressure
CPTV   .cm3  99 995 99  1 : Cumulative pump-through volume
DBDEPTH.ft   99 995 99  1 : Depth of 1970DB straddle packer
RTDQJ  .degF 99 995 99  1 : 1970JB Quartzdyne pressure gauge temperature
SPEP   .psi  99 995 99  1 : Packer element pressure
PTFRC  .cc/s 99 995 99  1 : Rate (injection and flowback)
CPTVF  .L    99 995 99  1 : Continuous pump-through volume
ASPEP  .psi  99 995 99  1 : Absolute packer element pressure
~Params ----------------------------------------------------
LATI.DEG 0.0 : Latitude
LONG.DEG 0.0 : Longitude
~Other -----------------------------------------------------
~ASCII -----------------------------------------------------
# ...
 9260.00000 3080.37598 33147.32422 5494.28906  230.79181 1263.00000    0.00000   33.15963 3623.00000
 9260.12500 3080.37402 33147.32422 5494.28906  230.79185 1263.00000    0.00000   33.15963 3623.00000
 9260.25000 3080.37207 33147.32422 5494.28906  230.79190 1263.00000    0.00000   33.15963 3623.00000
 9260.37500 3080.37012 33147.32422 5494.28906  230.79193 1263.00000    0.00000   33.15963 3623.00000
 9260.50000 3080.36768 33147.32422 5494.28906  230.79195 1263.00000    0.00000   33.15963 3623.00000
 9260.62500 3080.36572 33147.32422 5494.28906  230.79199 1263.00000    0.00000   33.15963 3623.00000
 9260.75000 3080.36401 33147.32422 5494.28906  230.79199 1263.00000    0.00000   33.15963 3623.00000
 9260.87500 3080.36230 33147.32422 5494.28906  230.79201 1263.00000    0.00000   33.15963 3623.00000
 9261.00000 3080.36035 33147.32422 5494.28906  230.79205 1263.00000    0.00000   33.15963 3623.00000
 9261.12500 3080.35840 33147.32422 5494.28906  230.79211 1263.00000    0.00000   33.15963 3623.00000
 9261.25000 3080.35669 33147.32422 5494.28906  230.79216 1263.00000    0.00000   33.15963 3623.00000
 9261.37500 3080.35498 33147.32422 5494.28906  230.79219 1263.00000    0.00000   33.15963 3623.00000
 9261.50000 3080.35303 33147.32422 5494.28906  230.79222 1263.00000    0.00000   33.15963 3623.00000
 9261.62500 3080.35156 33147.32422 5494.28906  230.79225 1260.00000    0.00000   33.15963 3620.00000
 9261.75000 3080.35059 33147.32422 5494.28906  230.79225 1260.00000    0.00000   33.15963 3620.00000
 9261.87500 3080.34961 33147.32422 5494.28906  230.79227 1263.00000    0.00000   33.15963 3623.00000
 9262.00000 3080.34839 33147.32422 5494.28906  230.79230 1263.00000    0.00000   33.15963 3623.00000
 9262.12500 3080.34717 33147.32422 5494.28906  230.79236 1263.00000    0.00000   33.15964 3623.00000
 9262.25000 3080.34473 33147.32422 5494.28906  230.79239 1263.00000    0.00000   33.15964 3623.00000
 9262.37500 3080.34180 33147.32422 5494.28906  230.79243 1263.00000    0.00000   33.15964 3623.00000
 9262.50000 3080.33838 33147.32422 5494.28906  230.79247 1263.00000    0.00000   33.15964 3623.00000
 9262.62500 3080.33594 33147.32422 5494.28906  230.79250 1263.00000    0.00000   33.15964 3623.00000
 9262.75000 3080.33350 33147.32422 5494.28906  230.79253 1263.00000    0.00000   33.15964 3623.00000
 9262.87500 3080.33203 33147.32422 5494.28906  230.79254 1269.00000    0.00000   33.15964 3629.00000
 9263.00000 3080.33105 33147.32422 5494.28906  230.79254 1269.00000    0.00000   33.15964 3629.00000
 9263.12500 3080.33008 33147.32422 5494.28906  230.79257 1260.00000    0.00000   33.15964 3620.00000
 9263.25000 3080.32910 33147.32422 5494.28906  230.79260 1260.00000    0.00000   33.15964 3620.00000
 9263.37500 3080.32788 33147.32422 5494.28906  230.79266 1260.00000    0.00000   33.15964 3620.00000
 9263.50000 3080.32617 33147.32422 5494.28906  230.79269 1260.00000    0.00000   33.15964 3620.00000
 9263.62500 3080.32422 33147.32422 5494.28906  230.79274 1260.00000    0.00000   33.15964 3620.00000
 9263.75000 3080.32227 33147.32422 5494.28906  230.79279 1260.00000    0.00000   33.15964 3620.00000
 9263.87500 3080.32031 33147.32422 5494.28906  230.79282 1260.00000    0.00000   33.15964 3620.00000
 9264.00000 3080.31836 33147.32422 5494.28906  230.79282 1260.00000    0.00000   33.15964 3620.00000
 9264.12500 3080.31641 33147.32422 5494.28906  230.79283 1263.00000    0.00000   33.15965 3623.00000
 9264.25000 3080.31494 33147.32422 5494.28906  230.79288 1263.00000    0.00000   33.15965 3623.00000
 9264.37500 3080.31250 33147.32422 5494.28906  230.79291 1263.00000    0.00000   33.15965 3623.00000
 9264.50000 3080.31055 33147.32422 5494.28906  230.79295 1263.00000    0.00000   33.15965 3623.00000
 9264.62500 3080.30811 33147.32422 5494.28906  230.79300 1263.00000    0.00000   33.15965 3623.00000
 9264.75000 3080.30615 33147.32422 5494.28906  230.79303 1263.00000    0.00000   33.15965 3623.00000
 9264.87500 3080.30420 33147.32422 5494.28906  230.79308 1263.00000    0.00000   33.15965 3623.00000
 9265.00000 3080.30249 33147.32422 5494.28906  230.79309 1263.00000    0.00000   33.15965 3623.00000
 9265.12500 3080.30127 33147.32422 5494.28906  230.79311 1263.00000    0.00000   33.15965 3623.00000
 9265.25000 3080.29980 33147.32422 5494.28906  230.79315 1263.00000    0.00000   33.15965 3623.00000
 9265.37500 3080.29834 33147.32422 5494.28906  230.79318 1263.00000    0.00000   33.15965 3623.00000
 9265.50000 3080.29688 33147.32422 5494.28906  230.79323 1263.00000    0.00000   33.15965 3623.00000
 9265.62500 3080.29541 33147.32422 5494.28906  230.79324 1260.00000    0.00000   33.15965 3620.00000
 9265.75000 3080.29370 33147.32422 5494.28906  230.79327 1260.00000    0.00000   33.15965 3620.00000
 9265.87500 3080.29175 33147.32422 5494.28906  230.79332 1260.00000    0.00000   33.15965 3620.00000
 9266.00000 3080.28955 33147.32422 5494.28906  230.79333 1260.00000    0.00000   33.15965 3620.00000
 9266.12500 3080.28687 33147.32422 5494.28906  230.79335 1260.00000    0.00000   33.15965 3620.00000
 9266.25000 3080.28442 33147.32422 5494.28906  230.79337 1260.00000    0.00000   33.15966 3620.00000
 9266.37500 3080.28223 33147.32422 5494.28906  230.79340 1263.00000    0.00000   33.15966 3623.00000
 9266.50000 3080.28052 33147.32422 5494.28906  230.79343 1263.00000    0.00000   33.15966 3623.00000
 9266.62500 3080.27881 33147.32422 5494.28906  230.79349 1263.00000    0.00000   33.15966 3623.00000
 9266.75000 3080.27734 33147.32422 5494.28906  230.79352 1263.00000    0.00000   33.15966 3623.00000
 9266.87500 3080.27612 33147.32422 5494.28906  230.79356 1263.00000    0.00000   33.15966 3623.00000
 9267.00000 3080.27466 33147.32422 5494.28906  230.79361 1263.00000    0.00000   33.15966 3623.00000
 9267.12500 3080.27295 33147.32422 5494.28906  230.79364 1263.00000    0.00000   33.15966 3623.00000
 9267.25000 3080.27148 33147.32422 5494.28906  230.79367 1263.00000    0.00000   33.15966 3623.00000
 9267.37500 3080.27002 33147.32422 5494.28906  230.79369 1263.00000    0.00000   33.15966 3623.00000
 9267.50000 3080.26807 33147.32422 5494.28906  230.79373 1263.00000    0.00000   33.15966 3623.00000
 9267.62500 3080.26660 33147.32422 5494.28906  230.79373 1263.00000    0.00000   33.15966 3623.00000
 9267.75000 3080.26489 33147.32422 5494.28906  230.79376 1263.00000    0.00000   33.15966 3623.00000
 9267.87500 3080.26294 33147.32422 5494.28906  230.79378 1260.00000    0.00000   33.15966 3620.00000
 9268.00000 3080.26074 33147.32422 5494.28906  230.79379 1260.00000    0.00000   33.15966 3620.00000
 9268.12500 3080.25854 33147.32422 5494.28906  230.79387 1263.00000    0.00000   33.15966 3623.00000
 9268.25000 3080.25635 33147.32422 5494.28906  230.79390 1263.00000    0.00000   33.15967 3623.00000
 9268.37500 3080.25439 33147.32422 5494.28906  230.79395 1263.00000    0.00000   33.15967 3623.00000
 9268.50000 3080.25293 33147.32422 5494.28906  230.79401 1263.00000    0.00000   33.15967 3623.00000
 9268.62500 3080.25122 33147.32422 5494.28906  230.79404 1260.00000    0.00000   33.15967 3620.00000
 9268.75000 3080.24951 33147.32422 5494.28906  230.79405 1260.00000    0.00000   33.15967 3620.00000
 9268.87500 3080.24780 33147.32422 5494.28906  230.79408 1260.00000    0.00000   33.15967 3620.00000
 9269.00000 3080.24609 33147.32422 5494.28906  230.79408 1260.00000    0.00000   33.15967 3620.00000
 9269.12500 3080.24414 33147.32422 5494.28906  230.79411 1263.00000    0.00000   33.15967 3623.00000
 9269.25000 3080.24268 33147.32422 5494.28906  230.79411 1263.00000    0.00000   33.15967 3623.00000
 9269.37500 3080.24072 33147.32422 5494.28906  230.79414 1263.00000    0.00000   33.15967 3623.00000
 9269.50000 3080.23877 33147.32422 5494.28906  230.79419 1263.00000    0.00000   33.15967 3623.00000
 9269.62500 3080.23682 33147.32422 5494.28906  230.79425 1263.00000    0.00000   33.15967 3623.00000
 9269.75000 3080.23535 33147.32422 5494.28906  230.79428 1263.00000    0.00000   33.15967 3623.00000
 9269.87500 3080.23315 33147.32422 5494.28906  230.79433 1263.00000    0.00000   33.15967 3623.00000
