~Version ---------------------------------------------------
VERS. 2.0 : CWLS log ASCII Standard -VERSION 2.0
WRAP.  NO : One line per frame
~Well ------------------------------------------------------
STRT.S                         0.0 : Starting Time
STOP.S                     15391.0 : Ending Time
STEP.S                       0.125 : Level Spacing
NULL.                      -999.25 : Absent Value
COMP.  BATTELLE MEMORIAL INSTITUTE : Company
WELL.             FORGE 16B(78)-32 : Well
FLD .                        FORGE : Field
LOC .                              : Location
CNTY.                       BEAVER : County
STAT.                         UTAH : State
CTRY.                          USA : Country
SRVC.                 Baker Hughes : Service Company
DATE. Wed Jun 28 07:03:31 2023 Z-7 : Log Date
API .                              : API Number
UWI .                              : Unique Well ID
DEPTHMD .ft          5494.27930    : Measured Depth
DEPTHTVD .ft            5494.00    : True Vertical Depth
~Curve Information -----------------------------------------
TIME   .S    99 995 99  1 : System time since record start
APQJ   .psi  99 995 99  1 : 1970JB Quartzdyne gauge pressure
CPTV   .cm3  99 995 99  1 : Cumulative pump-through volume
DBDEPTH.ft   99 995 99  1 : Depth of 1970DB straddle packer
RTDQJ  .degF 99 995 99  1 : 1970JB Quartzdyne pressure gauge temperature
SPEP   .psi  99 995 99  1 : Packer element pressure
PTFRC  .cc/s 99 995 99  1 : Rate (injection and flowback)
CPTVF  .L    99 995 99  1 : Continuous pump-through volume
ASPEP  .psi  99 995 99  1 : Absolute packer element pressure
~Params ----------------------------------------------------
LATI.DEG 0.0 : Latitude
LONG.DEG 0.0 : Longitude
~Other -----------------------------------------------------
~ASCII -----------------------------------------------------
# ...
 8230.00000 3099.76904 33147.32422 5494.30225  230.53857 1284.00000    0.00000   33.15467 3644.00000
 8230.12500 3099.76611 33147.32422 5494.30225  230.53862 1284.00000    0.00000   33.15467 3644.00000
 8230.25000 3099.76318 33147.32422 5494.30225  230.53865 1284.00000    0.00000   33.15467 3644.00000
 8230.37500 3099.76025 33147.32422 5494.30225  230.53868 1287.00000    0.00000   33.15467 3647.00000
 8230.50000 3099.75732 33147.32422 5494.30225  230.53871 1287.00000    0.00000   33.15467 3647.00000
 8230.62500 3099.75391 33147.32422 5494.30225  230.53874 1284.00000    0.00000   33.15467 3644.00000
 8230.75000 3099.75049 33147.32422 5494.30225  230.53876 1284.00000    0.00000   33.15467 3644.00000
 8230.87500 3099.74756 33147.32422 5494.30225  230.53879 1284.00000    0.00000   33.15467 3644.00000
 8231.00000 3099.74438 33147.32422 5494.30225  230.53882 1284.00000    0.00000   33.15467 3644.00000
 8231.12500 3099.74121 33147.32422 5494.30225  230.53888 1287.00000    0.00000   33.15467 3647.00000
 8231.25000 3099.73804 33147.32422 5494.30225  230.53893 1287.00000    0.00000   33.15467 3647.00000
 8231.37500 3099.73535 33147.32422 5494.30225  230.53896 1284.00000    0.00000   33.15467 3644.00000
 8231.50000 3099.73193 33147.32422 5494.30225  230.53899 1284.00000    0.00000   33.15467 3644.00000
 8231.62500 3099.72876 33147.32422 5494.30225  230.53902 1287.00000    0.00000   33.15467 3647.00000
 8231.75000 3099.72559 33147.32422 5494.30225  230.53903 1287.00000    0.00000   33.15467 3647.00000
 8231.87500 3099.72217 33147.32422 5494.30225  230.53903 1284.00000    0.00000   33.15467 3644.00000
 8232.00000 3099.71875 33147.32422 5494.30225  230.53905 1284.00000    0.00000   33.15467 3644.00000
 8232.12500 3099.71582 33147.32422 5494.30225  230.53909 1284.00000    0.00000   33.15468 3644.00000
 8232.25000 3099.71289 33147.32422 5494.30225  230.53912 1284.00000    0.00000   33.15468 3644.00000
 8232.37500 3099.71045 33147.32422 5494.30225  230.53915 1287.00000    0.00000   33.15468 3647.00000
 8232.50000 3099.70825 33147.32422 5494.30225  230.53917 1287.00000    0.00000   33.15468 3647.00000
 8232.62500 3099.70605 33147.32422 5494.30225  230.53920 1287.00000    0.00000   33.15468 3647.00000
 8232.75000 3099.70312 33147.32422 5494.30225  230.53923 1287.00000    0.00000   33.15468 3647.00000
 8232.87500 3099.69995 33147.32422 5494.30225  230.53929 1284.00000    0.00000   33.15468 3644.00000
 8233.00000 3099.69629 33147.32422 5494.30225  230.53931 1284.00000    0.00000   33.15468 3644.00000
 8233.12500 3099.69214 33147.32422 5494.30225  230.53935 1284.00000    0.00000   33.15468 3644.00000
 8233.25000 3099.68799 33147.32422 5494.30225  230.53940 1284.00000    0.00000   33.15468 3644.00000
 8233.37500 3099.68457 33147.32422 5494.30225  230.53943 1284.00000    0.00000   33.15468 3644.00000
 8233.50000 3099.68115 33147.32422 5494.30225  230.53944 1284.00000    0.00000   33.15468 3644.00000
 8233.62500 3099.67847 33147.32422 5494.30225  230.53947 1284.00000    0.00000   33.15468 3644.00000
 8233.75000 3099.67603 33147.32422 5494.30225  230.53951 1284.00000    0.00000   33.15468 3644.00000
 8233.87500 3099.67358 33147.32422 5494.30225  230.53954 1287.00000    0.00000   33.15468 3647.00000
 8234.00000 3099.67090 33147.32422 5494.30225  230.53957 1287.00000    0.00000   33.15468 3647.00000
 8234.12500 3099.66797 33147.32422 5494.30225  230.53961 1287.00000    0.00000   33.15469 3647.00000
 8234.25000 3099.66504 33147.32422 5494.30225  230.53966 1287.00000    0.00000   33.15469 3647.00000
 8234.37500 3099.66162 33147.32422 5494.30225  230.53967 1284.00000    0.00000   33.15469 3644.00000
 8234.50000 3099.65845 33147.32422 5494.30225  230.53970 1284.00000    0.00000   33.15469 3644.00000
 8234.62500 3099.65503 33147.32422 5494.30225  230.53972 1284.00000    0.00000   33.15469 3644.00000
 8234.75000 3099.65161 33147.32422 5494.30225  230.53973 1284.00000    0.00000   33.15469 3644.00000
 8234.87500 3099.64819 33147.32422 5494.30225  230.53978 1287.00000    0.00000   33.15469 3647.00000
 8235.00000 3099.64526 33147.32422 5494.30225  230.53981 1287.00000    0.00000   33.15469 3647.00000
 8235.12500 3099.64233 33147.32422 5494.30225  230.53984 1284.00000    0.00000   33.15469 3644.00000
 8235.25000 3099.63965 33147.32422 5494.30225  230.53987 1284.00000    0.00000   33.15469 3644.00000
 8235.37500 3099.63721 33147.32422 5494.30225  230.53989 1287.00000    0.00000   33.15469 3647.00000
 8235.50000 3099.63428 33147.32422 5494.30225  230.53995 1287.00000    0.00000   33.15469 3647.00000
 8235.62500 3099.63135 33147.32422 5494.30225  230.53999 1287.00000    0.00000   33.15469 3647.00000
 8235.75000 3099.62793 33147.32422 5494.30225  230.54002 1287.00000    0.00000   33.15469 3647.00000
 8235.87500 3099.62476 33147.32422 5494.30225  230.54007 1287.00000    0.00000   33.15469 3647.00000
 8236.00000 3099.62109 33147.32422 5494.30225  230.54008 1287.00000    0.00000   33.15469 3647.00000
 8236.12500 3099.61792 33147.32422 5494.30225  230.54012 1284.00000    0.00000   33.15469 3644.00000
 8236.25000 3099.61475 33147.32422 5494.30225  230.54012 1284.00000    0.00000   33.15470 3644.00000
 8236.37500 3099.61182 33147.32422 5494.30225  230.54012 1287.00000    0.00000   33.15470 3647.00000
 8236.50000 3099.60889 33147.32422 5494.30225  230.54013 1287.00000    0.00000   33.15470 3647.00000
 8236.62500 3099.60620 33147.32422 5494.30225  230.54016 1284.00000    0.00000   33.15470 3644.00000
 8236.75000 3099.60278 33147.32422 5494.30225  230.54022 1284.00000    0.00000   33.15470 3644.00000
 8236.87500 3099.59961 33147.32422 5494.30225  230.54025 1284.00000    0.00000   33.15470 3644.00000
 8237.00000 3099.59570 33147.32422 5494.30225  230.54031 1284.00000    0.00000   33.15470 3644.00000
 8237.12500 3099.59229 33147.32422 5494.30225  230.54036 1278.00000    0.00000   33.15470 3638.00000
 8237.25000 3099.58887 33147.32422 5494.30225  230.54037 1278.00000    0.00000   33.15470 3638.00000
 8237.37500 3099.58594 33147.32422 5494.30225  230.54039 1284.00000    0.00000   33.15470 3644.00000
 8237.50000 3099.58325 33147.32422 5494.30225  230.54042 1284.00000    0.00000   33.15470 3644.00000
 8237.62500 3099.58057 33147.32422 5494.30225  230.54047 1284.00000    0.00000   33.15470 3644.00000
 8237.75000 3099.57788 33147.32422 5494.30225  230.54048 1284.00000    0.00000   33.15470 3644.00000
 8237.87500 3099.57471 33147.32422 5494.30225  230.54053 1443.00000    0.00000   33.15470 3803.00000
 8238.00000 3099.57153 33147.32422 5494.30225  230.54054 1443.00000    0.00000   33.15470 3803.00000
 8238.12500 3099.56812 33147.32422 5494.30225  230.54056 1284.00000    0.00000   33.15470 3644.00000
 8238.25000 3099.56494 33147.32422 5494.30225  230.54059 1284.00000    0.00000   33.15470 3644.00000
 8238.37500 3099.56201 33147.32422 5494.30225  230.54062 1284.00000    0.00000   33.15471 3644.00000
 8238.50000 3099.55957 33147.32422 5494.30225  230.54065 1284.00000    0.00000   33.15471 3644.00000
 8238.62500 3099.55713 33147.32422 5494.30225  230.54068 1287.00000    0.00000   33.15471 3647.00000
 8238.75000 3099.55420 33147.32422 5494.30225  230.54070 1287.00000    0.00000   33.15471 3647.00000
 8238.87500 3099.55078 33147.32422 5494.30225  230.54074 1284.00000    0.00000   33.15471 3644.00000
 8239.00000 3099.54736 33147.32422 5494.30225  230.54080 1284.00000    0.00000   33.15471 3644.00000
 8239.12500 3099.54395 33147.32422 5494.30225  230.54083 1284.00000    0.00000   33.15471 3644.00000
 8239.25000 3099.54053 33147.32422 5494.30225  230.54088 1284.00000    0.00000   33.15471 3644.00000
 8239.37500 3099.53760 33147.32422 5494.30225  230.54089 1278.00000    0.00000   33.15471 3638.00000
 8239.50000 3099.53418 33147.32422 5494.30225  230.54091 1278.00000    0.00000   33.15471 3638.00000
 8239.62500 3099.53125 33147.32422 5494.30225  230.54094 1284.00000    0.00000   33.15471 3644.00000
 8239.75000 3099.52832 33147.32422 5494.30225  230.54094 1284.00000    0.00000   33.15471 3644.00000
 8239.87500 3099.52563 33147.32422 5494.30225  230.54097 1284.00000    0.00000   33.15471 3644.00000
