~Version ---------------------------------------------------
VERS. 2.0 : CWLS log ASCII Standard -VERSION 2.0
WRAP.  NO : One line per frame
~Well ------------------------------------------------------
STRT.S                         0.0 : Starting Time
STOP.S                     15391.0 : Ending Time
STEP.S                       0.125 : Level Spacing
NULL.                      -999.25 : Absent Value
COMP.  BATTELLE MEMORIAL INSTITUTE : Company
WELL.             FORGE 16B(78)-32 : Well
FLD .                        FORGE : Field
LOC .                              : Location
CNTY.                       BEAVER : County
STAT.                         UTAH : State
CTRY.                          USA : Country
SRVC.                 Baker Hughes : Service Company
DATE. Wed Jun 28 07:03:31 2023 Z-7 : Log Date
API .                              : API Number
UWI .                              : Unique Well ID
DEPTHMD .ft          5494.27930    : Measured Depth
DEPTHTVD .ft            5494.00    : True Vertical Depth
~Curve Information -----------------------------------------
TIME   .S    99 995 99  1 : System time since record start
APQJ   .psi  99 995 99  1 : 1970JB Quartzdyne gauge pressure
CPTV   .cm3  99 995 99  1 : Cumulative pump-through volume
DBDEPTH.ft   99 995 99  1 : Depth of 1970DB straddle packer
RTDQJ  .degF 99 995 99  1 : 1970JB Quartzdyne pressure gauge temperature
SPEP   .psi  99 995 99  1 : Packer element pressure
PTFRC  .cc/s 99 995 99  1 : Rate (injection and flowback)
CPTVF  .L    99 995 99  1 : Continuous pump-through volume
ASPEP  .psi  99 995 99  1 : Absolute packer element pressure
~Params ----------------------------------------------------
LATI.DEG 0.0 : Latitude
LONG.DEG 0.0 : Longitude
~Other -----------------------------------------------------
~ASCII -----------------------------------------------------
# ...
 4120.00000 3079.43677 26412.99805 5494.30225  229.59753 1284.00000    0.00000   26.41379 3644.00000
 4120.12500 3079.43042 26412.99805 5494.30225  229.59756 1284.00000    0.00000   26.41379 3644.00000
 4120.25000 3079.42383 26412.99805 5494.30225  229.59760 1284.00000    0.00000   26.41379 3644.00000
 4120.37500 3079.41748 26412.99805 5494.30225  229.59764 1284.00000    0.00000   26.41379 3644.00000
 4120.50000 3079.41138 26412.99805 5494.30225  229.59767 1284.00000    0.00000   26.41379 3644.00000
 4120.62500 3079.40527 26412.99805 5494.30225  229.59767 1278.00000    0.00000   26.41379 3638.00000
 4120.75000 3079.39893 26412.99805 5494.30225  229.59767 1278.00000    0.00000   26.41379 3638.00000
 4120.87500 3079.39307 26412.99805 5494.30225  229.59769 1278.00000    0.00000   26.41379 3638.00000
 4121.00000 3079.38672 26412.99805 5494.30225  229.59770 1278.00000    0.00000   26.41379 3638.00000
 4121.12500 3079.38086 26412.99805 5494.30225  229.59773 1278.00000    0.00000   26.41379 3638.00000
 4121.25000 3079.37451 26412.99805 5494.30225  229.59778 1278.00000    0.00000   26.41379 3638.00000
 4121.37500 3079.36816 26412.99805 5494.30225  229.59784 1284.00000    0.00000   26.41379 3644.00000
 4121.50000 3079.36133 26412.99805 5494.30225  229.59789 1284.00000    0.00000   26.41379 3644.00000
 4121.62500 3079.35449 26412.99805 5494.30225  229.59790 1278.00000    0.00000   26.41380 3638.00000
 4121.75000 3079.34790 26412.99805 5494.30225  229.59790 1278.00000    0.00000   26.41380 3638.00000
 4121.87500 3079.34180 26412.99805 5494.30225  229.59790 1278.00000    0.00000   26.41380 3638.00000
 4122.00000 3079.33594 26412.99805 5494.30225  229.59790 1278.00000    0.00000   26.41380 3638.00000
 4122.12500 3079.33032 26412.99805 5494.30225  229.59790 1284.00000    0.00000   26.41380 3644.00000
 4122.25000 3079.32422 26412.99805 5494.30225  229.59792 1284.00000    0.00000   26.41380 3644.00000
 4122.37500 3079.31836 26412.99805 5494.30225  229.59796 1278.00000    0.00000   26.41380 3638.00000
 4122.50000 3079.31152 26412.99805 5494.30225  229.59798 1278.00000    0.00000   26.41380 3638.00000
 4122.62500 3079.30469 26412.99805 5494.30225  229.59804 1278.00000    0.00000   26.41380 3638.00000
 4122.75000 3079.29810 26412.99805 5494.30225  229.59807 1278.00000    0.00000   26.41380 3638.00000
 4122.87500 3079.29175 26412.99805 5494.30225  229.59808 1284.00000    0.00000   26.41380 3644.00000
 4123.00000 3079.28516 26412.99805 5494.30225  229.59811 1284.00000    0.00000   26.41380 3644.00000
 4123.12500 3079.27881 26412.99805 5494.30225  229.59813 1284.00000    0.00000   26.41380 3644.00000
 4123.25000 3079.27246 26412.99805 5494.30225  229.59814 1284.00000    0.00000   26.41380 3644.00000
 4123.37500 3079.26611 26412.99805 5494.30225  229.59818 1278.00000    0.00000   26.41380 3638.00000
 4123.50000 3079.26025 26412.99805 5494.30225  229.59818 1278.00000    0.00000   26.41380 3638.00000
 4123.62500 3079.25391 26412.99805 5494.30225  229.59821 1284.00000    0.00000   26.41380 3644.00000
 4123.75000 3079.24829 26412.99805 5494.30225  229.59825 1284.00000    0.00000   26.41380 3644.00000
 4123.87500 3079.24219 26412.99805 5494.30225  229.59828 1284.00000    0.00000   26.41380 3644.00000
 4124.00000 3079.23584 26412.99805 5494.30225  229.59833 1284.00000    0.00000   26.41380 3644.00000
 4124.12500 3079.22925 26412.99805 5494.30225  229.59833 1284.00000    0.00000   26.41380 3644.00000
 4124.25000 3079.22314 26412.99805 5494.30225  229.59836 1284.00000    0.00000   26.41380 3644.00000
 4124.37500 3079.21729 26412.99805 5494.30225  229.59836 1284.00000    0.00000   26.41380 3644.00000
 4124.50000 3079.21167 26412.99805 5494.30225  229.59837 1284.00000    0.00000   26.41380 3644.00000
 4124.62500 3079.20605 26412.99805 5494.30225  229.59839 1278.00000    0.00000   26.41380 3638.00000
 4124.75000 3079.19971 26412.99805 5494.30225  229.59842 1278.00000    0.00000   26.41380 3638.00000
 4124.87500 3079.19360 26412.99805 5494.30225  229.59845 1278.00000    0.00000   26.41380 3638.00000
 4125.00000 3079.18726 26412.99805 5494.30225  229.59845 1278.00000    0.00000   26.41380 3638.00000
 4125.12500 3079.18066 26412.99805 5494.30225  229.59846 1278.00000    0.00000   26.41380 3638.00000
 4125.25000 3079.17432 26412.99805 5494.30225  229.59850 1278.00000    0.00000   26.41380 3638.00000
 4125.37500 3079.16772 26412.99805 5494.30225  229.59853 1278.00000    0.00000   26.41380 3638.00000
 4125.50000 3079.16113 26412.99805 5494.30225  229.59856 1278.00000    0.00000   26.41380 3638.00000
 4125.62500 3079.15503 26412.99805 5494.30225  229.59860 1278.00000    0.00000   26.41380 3638.00000
 4125.75000 3079.14893 26412.99805 5494.30225  229.59860 1278.00000    0.00000   26.41380 3638.00000
 4125.87500 3079.14355 26412.99805 5494.30225  229.59860 1278.00000    0.00000   26.41380 3638.00000
 4126.00000 3079.13818 26412.99805 5494.30225  229.59860 1278.00000    0.00000   26.41380 3638.00000
 4126.12500 3079.13281 26412.99805 5494.30225  229.59863 1278.00000    0.00000   26.41380 3638.00000
 4126.25000 3079.12671 26412.99805 5494.30225  229.59863 1278.00000    0.00000   26.41380 3638.00000
 4126.37500 3079.12061 26412.99805 5494.30225  229.59868 1284.00000    0.00000   26.41380 3644.00000
 4126.50000 3079.11377 26412.99805 5494.30225  229.59871 1284.00000    0.00000   26.41380 3644.00000
 4126.62500 3079.10742 26412.99805 5494.30225  229.59872 1278.00000    0.00000   26.41380 3638.00000
 4126.75000 3079.10107 26412.99805 5494.30225  229.59874 1278.00000    0.00000   26.41380 3638.00000
 4126.87500 3079.09473 26412.99805 5494.30225  229.59877 1278.00000    0.00000   26.41380 3638.00000
 4127.00000 3079.08765 26412.99805 5494.30225  229.59882 1278.00000    0.00000   26.41380 3638.00000
 4127.12500 3079.08057 26412.99805 5494.30225  229.59885 1278.00000    0.00000   26.41380 3638.00000
 4127.25000 3079.07397 26412.99805 5494.30225  229.59888 1278.00000    0.00000   26.41380 3638.00000
 4127.37500 3079.06738 26412.99805 5494.30225  229.59891 1278.00000    0.00000   26.41380 3638.00000
 4127.50000 3079.06104 26412.99805 5494.30225  229.59894 1278.00000    0.00000   26.41380 3638.00000
 4127.62500 3079.05518 26412.99805 5494.30225  229.59894 1278.00000    0.00000   26.41380 3638.00000
 4127.75000 3079.04956 26412.99805 5494.30225  229.59894 1278.00000    0.00000   26.41380 3638.00000
 4127.87500 3079.04370 26412.99805 5494.30225  229.59897 1278.00000    0.00000   26.41380 3638.00000
 4128.00000 3079.03760 26412.99805 5494.30225  229.59900 1278.00000    0.00000   26.41380 3638.00000
 4128.12500 3079.03149 26412.99805 5494.30225  229.59901 1278.00000    0.00000   26.41380 3638.00000
 4128.25000 3079.02539 26412.99805 5494.30225  229.59903 1278.00000    0.00000   26.41380 3638.00000
 4128.37500 3079.01953 26412.99805 5494.30225  229.59908 1278.00000    0.00000   26.41380 3638.00000
 4128.50000 3079.01367 26412.99805 5494.30225  229.59909 1278.00000    0.00000   26.41380 3638.00000
 4128.62500 3079.00781 26412.99805 5494.30225  229.59914 1278.00000    0.00000   26.41380 3638.00000
 4128.75000 3079.00171 26412.99805 5494.30225  229.59912 1278.00000    0.00000   26.41380 3638.00000
 4128.87500 3078.99536 26412.99805 5494.30225  229.59914 1278.00000    0.00000   26.41380 3638.00000
 4129.00000 3078.98877 26412.99805 5494.30225  229.59915 1278.00000    0.00000   26.41380 3638.00000
 4129.12500 3078.98291 26412.99805 5494.30225  229.59918 1278.00000    0.00000   26.41380 3638.00000
 4129.25000 3078.97656 26412.99805 5494.30225  229.59918 1278.00000    0.00000   26.41380 3638.00000
 4129.37500 3078.97070 26412.99805 5494.30225  229.59921 1284.00000    0.00000   26.41380 3644.00000
 4129.50000 3078.96484 26412.99805 5494.30225  229.59924 1284.00000    0.00000   26.41380 3644.00000
 4129.62500 3078.95874 26412.99805 5494.30225  229.59926 1278.00000    0.00000   26.41380 3638.00000
 4129.75000 3078.95239 26412.99805 5494.30225  229.59927 1278.00000    0.00000   26.41380 3638.00000
 4129.87500 3078.94604 26412.99805 5494.30225  229.59929 1278.00000    0.00000   26.41380 3638.00000
