~Version ---------------------------------------------------
VERS. 2.0 : CWLS log ASCII Standard -VERSION 2.0
WRAP.  NO : One line per frame
~Well ------------------------------------------------------
STRT.S                         0.0 : Starting Time
STOP.S                     15391.0 : Ending Time
STEP.S                       0.125 : Level Spacing
NULL.                      -999.25 : Absent Value
COMP.  BATTELLE MEMORIAL INSTITUTE : Company
WELL.             FORGE 16B(78)-32 : Well
FLD .                        FORGE : Field
LOC .                              : Location
CNTY.                       BEAVER : County
STAT.                         UTAH : State
CTRY.                          USA : Country
SRVC.                 Baker Hughes : Service Company
DATE. Wed Jun 28 07:03:31 2023 Z-7 : Log Date
API .                              : API Number
UWI .                              : Unique Well ID
DEPTHMD .ft          5494.27930    : Measured Depth
DEPTHTVD .ft            5494.00    : True Vertical Depth
~Curve Information -----------------------------------------
TIME   .S    99 995 99  1 : System time since record start
APQJ   .psi  99 995 99  1 : 1970JB Quartzdyne gauge pressure
CPTV   .cm3  99 995 99  1 : Cumulative pump-through volume
DBDEPTH.ft   99 995 99  1 : Depth of 1970DB straddle packer
RTDQJ  .degF 99 995 99  1 : 1970JB Quartzdyne pressure gauge temperature
SPEP   .psi  99 995 99  1 : Packer element pressure
PTFRC  .cc/s 99 995 99  1 : Rate (injection and flowback)
CPTVF  .L    99 995 99  1 : Continuous pump-through volume
ASPEP  .psi  99 995 99  1 : Absolute packer element pressure
~Params ----------------------------------------------------
LATI.DEG 0.0 : Latitude
LONG.DEG 0.0 : Longitude
~Other -----------------------------------------------------
~ASCII -----------------------------------------------------
# ...
 2060.00000 2791.81567 23464.99805 5494.30225  229.46823  921.00000    0.00000   23.68285 3281.00000
 2060.12500 2791.80029 23464.99805 5494.30225  229.46817  921.00000    0.00000   23.68297 3281.00000
 2060.25000 2791.78467 23464.99805 5494.30225  229.46814  921.00000    0.00000   23.68308 3281.00000
 2060.37500 2791.76855 23464.99805 5494.30225  229.46809  927.00000    0.00000   23.68320 3287.00000
 2060.50000 2791.75293 23464.99805 5494.30225  229.46803  927.00000    0.00000   23.68331 3287.00000
 2060.62500 2791.73755 23464.99805 5494.30225  229.46799  927.00000    0.00000   23.68343 3287.00000
 2060.75000 2791.72241 23464.99805 5494.30225  229.46796  927.00000    0.00000   23.68354 3287.00000
 2060.87500 2791.70752 23464.99805 5494.30225  229.46790  921.00000    0.00000   23.68366 3281.00000
 2061.00000 2791.69263 23464.99805 5494.30225  229.46785  921.00000    0.00000   23.68378 3281.00000
 2061.12500 2791.67725 23464.99805 5494.30225  229.46780  921.00000    0.00000   23.68389 3281.00000
 2061.25000 2791.66211 23464.99805 5494.30225  229.46776  921.00000    0.00000   23.68401 3281.00000
 2061.37500 2791.64648 23464.99805 5494.30225  229.46771  927.00000    0.00000   23.68412 3287.00000
 2061.50000 2791.63086 23464.99805 5494.30225  229.46764  927.00000    0.00000   23.68424 3287.00000
 2061.62500 2791.61572 23464.99805 5494.30225  229.46759  927.00000    0.00000   23.68436 3287.00000
 2061.75000 2791.60083 23464.99805 5494.30225  229.46751  927.00000    0.00000   23.68447 3287.00000
 2061.87500 2791.58618 23464.99805 5494.30225  229.46745  921.00000    0.00000   23.68459 3281.00000
 2062.00000 2791.57104 23464.99805 5494.30225  229.46744  921.00000    0.00000   23.68470 3281.00000
 2062.12500 2791.55591 23464.99805 5494.30225  229.46741  921.00000    0.00000   23.68482 3281.00000
 2062.25000 2791.54053 23464.99805 5494.30225  229.46735  921.00000    0.00000   23.68493 3281.00000
 2062.37500 2791.52466 23464.99805 5494.30225  229.46732  927.00000    0.00000   23.68505 3287.00000
 2062.50000 2791.50928 23464.99805 5494.30225  229.46730  927.00000    0.00000   23.68517 3287.00000
 2062.62500 2791.49341 23464.99805 5494.30225  229.46724  921.00000    0.00000   23.68528 3281.00000
 2062.75000 2791.47803 23464.99805 5494.30225  229.46716  921.00000    0.00000   23.68540 3281.00000
 2062.87500 2791.46265 23464.99805 5494.30225  229.46710  921.00000    0.00000   23.68551 3281.00000
 2063.00000 2791.44727 23464.99805 5494.30225  229.46706  921.00000    0.00000   23.68563 3281.00000
 2063.12500 2791.43237 23464.99805 5494.30225  229.46700  921.00000    0.00000   23.68574 3281.00000
 2063.25000 2791.41724 23464.99805 5494.30225  229.46693  921.00000    0.00000   23.68586 3281.00000
 2063.37500 2791.40234 23464.99805 5494.30225  229.46690  921.00000    0.00000   23.68598 3281.00000
 2063.50000 2791.38721 23464.99805 5494.30225  229.46689  921.00000    0.00000   23.68609 3281.00000
 2063.62500 2791.37207 23464.99805 5494.30225  229.46683  921.00000    0.00000   23.68621 3281.00000
 2063.75000 2791.35693 23464.99805 5494.30225  229.46677  921.00000    0.00000   23.68632 3281.00000
 2063.87500 2791.34180 23464.99805 5494.30225  229.46674  921.00000    0.00000   23.68644 3281.00000
 2064.00000 2791.32666 23464.99805 5494.30225  229.46669  921.00000    0.00000   23.68656 3281.00000
 2064.12500 2791.31177 23464.99805 5494.30225  229.46666  927.00000    0.00000   23.68667 3287.00000
 2064.25000 2791.29663 23464.99805 5494.30225  229.46661  927.00000    0.00000   23.68679 3287.00000
 2064.37500 2791.28101 23464.99805 5494.30225  229.46658  921.00000    0.00000   23.68690 3281.00000
 2064.50000 2791.26587 23464.99805 5494.30225  229.46652  921.00000    0.00000   23.68702 3281.00000
 2064.62500 2791.25000 23464.99805 5494.30225  229.46648  921.00000    0.00000   23.68713 3281.00000
 2064.75000 2791.23535 23464.99805 5494.30225  229.46637  921.00000    0.00000   23.68725 3281.00000
 2064.87500 2791.22070 23464.99805 5494.30225  229.46632  927.00000    0.00000   23.68737 3287.00000
 2065.00000 2791.20654 23464.99805 5494.30225  229.46628  927.00000    0.00000   23.68748 3287.00000
 2065.12500 2791.19238 23464.99805 5494.30225  229.46622  921.00000    0.00000   23.68760 3281.00000
 2065.25000 2791.17822 23464.99805 5494.30225  229.46620  921.00000    0.00000   23.68771 3281.00000
 2065.37500 2791.16357 23464.99805 5494.30225  229.46614  927.00000    0.00000   23.68783 3287.00000
 2065.50000 2791.14893 23464.99805 5494.30225  229.46611  927.00000    0.00000   23.68795 3287.00000
 2065.62500 2791.13403 23464.99805 5494.30225  229.46608  927.00000    0.00000   23.68806 3287.00000
 2065.75000 2791.11938 23464.99805 5494.30225  229.46602  927.00000    0.00000   23.68818 3287.00000
 2065.87500 2791.10474 23464.99805 5494.30225  229.46597  921.00000    0.00000   23.68829 3281.00000
 2066.00000 2791.08984 23464.99805 5494.30225  229.46590  921.00000    0.00000   23.68841 3281.00000
 2066.12500 2791.07471 23464.99805 5494.30225  229.46584  921.00000    0.00000   23.68852 3281.00000
 2066.25000 2791.05957 23464.99805 5494.30225  229.46581  921.00000    0.00000   23.68864 3281.00000
 2066.37500 2791.04443 23464.99805 5494.30225  229.46576  921.00000    0.00000   23.68876 3281.00000
 2066.50000 2791.02954 23464.99805 5494.30225  229.46570  921.00000    0.00000   23.68887 3281.00000
 2066.62500 2791.01465 23464.99805 5494.30225  229.46565  927.00000    0.00000   23.68899 3287.00000
 2066.75000 2790.99951 23464.99805 5494.30225  229.46562  927.00000    0.00000   23.68910 3287.00000
 2066.87500 2790.98486 23464.99805 5494.30225  229.46559  921.00000    0.00000   23.68922 3281.00000
 2067.00000 2790.96973 23464.99805 5494.30225  229.46556  921.00000    0.00000   23.68934 3281.00000
 2067.12500 2790.95508 23464.99805 5494.30225  229.46553  927.00000    0.00000   23.68945 3287.00000
 2067.25000 2790.94019 23464.99805 5494.30225  229.46547  927.00000    0.00000   23.68957 3287.00000
 2067.37500 2790.92554 23464.99805 5494.30225  229.46539  921.00000    0.00000   23.68968 3281.00000
 2067.50000 2790.91064 23464.99805 5494.30225  229.46536  921.00000    0.00000   23.68980 3281.00000
 2067.62500 2790.89551 23464.99805 5494.30225  229.46532  927.00000    0.00000   23.68991 3287.00000
 2067.75000 2790.88037 23464.99805 5494.30225  229.46527  927.00000    0.00000   23.69003 3287.00000
 2067.87500 2790.86548 23464.99805 5494.30225  229.46523  921.00000    0.00000   23.69015 3281.00000
 2068.00000 2790.85132 23464.99805 5494.30225  229.46518  921.00000    0.00000   23.69026 3281.00000
 2068.12500 2790.83716 23464.99805 5494.30225  229.46512  921.00000    0.00000   23.69038 3281.00000
 2068.25000 2790.82251 23464.99805 5494.30225  229.46504  921.00000    0.00000   23.69049 3281.00000
 2068.37500 2790.80737 23464.99805 5494.30225  229.46500  912.00000    0.00000   23.69061 3272.00000
 2068.50000 2790.79175 23464.99805 5494.30225  229.46497  912.00000    0.00000   23.69072 3272.00000
 2068.62500 2790.77588 23464.99805 5494.30225  229.46494  927.00000    0.00000   23.69084 3287.00000
 2068.75000 2790.76074 23464.99805 5494.30225  229.46489  927.00000    0.00000   23.69096 3287.00000
 2068.87500 2790.74609 23464.99805 5494.30225  229.46484  921.00000    0.00000   23.69107 3281.00000
 2069.00000 2790.73145 23464.99805 5494.30225  229.46480  921.00000    0.00000   23.69119 3281.00000
 2069.12500 2790.71729 23464.99805 5494.30225  229.46477  921.00000    0.00000   23.69130 3281.00000
 2069.25000 2790.70239 23464.99805 5494.30225  229.46471  921.00000    0.00000   23.69142 3281.00000
 2069.37500 2790.68774 23464.99805 5494.30225  229.46465  930.00000    0.00000   23.69154 3290.00000
 2069.50000 2790.67310 23464.99805 5494.30225  229.46458  930.00000    0.00000   23.69165 3290.00000
 2069.62500 2790.65845 23464.99805 5494.30225  229.46452  921.00000    0.00000   23.69177 3281.00000
 2069.75000 2790.64380 23464.99805 5494.30225  229.46448  921.00000    0.00000   23.69188 3281.00000
 2069.87500 2790.62891 23464.99805 5494.30225  229.46443  921.00000    0.00000   23.69200 3281.00000
