~Version ---------------------------------------------------
VERS. 2.0 : CWLS log ASCII Standard -VERSION 2.0
WRAP.  NO : One line per frame
~Well ------------------------------------------------------
STRT.S                         0.0 : Starting Time
STOP.S                     15391.0 : Ending Time
STEP.S                       0.125 : Level Spacing
NULL.                      -999.25 : Absent Value
COMP.  BATTELLE MEMORIAL INSTITUTE : Company
WELL.             FORGE 16B(78)-32 : Well
FLD .                        FORGE : Field
LOC .                              : Location
CNTY.                       BEAVER : County
STAT.                         UTAH : State
CTRY.                          USA : Country
SRVC.                 Baker Hughes : Service Company
DATE. Wed Jun 28 07:03:31 2023 Z-7 : Log Date
API .                              : API Number
UWI .                              : Unique Well ID
DEPTHMD .ft          5494.27930    : Measured Depth
DEPTHTVD .ft            5494.00    : True Vertical Depth
~Curve Information -----------------------------------------
TIME   .S    99 995 99  1 : System time since record start
APQJ   .psi  99 995 99  1 : 1970JB Quartzdyne gauge pressure
CPTV   .cm3  99 995 99  1 : Cumulative pump-through volume
DBDEPTH.ft   99 995 99  1 : Depth of 1970DB straddle packer
RTDQJ  .degF 99 995 99  1 : 1970JB Quartzdyne pressure gauge temperature
SPEP   .psi  99 995 99  1 : Packer element pressure
PTFRC  .cc/s 99 995 99  1 : Rate (injection and flowback)
CPTVF  .L    99 995 99  1 : Continuous pump-through volume
ASPEP  .psi  99 995 99  1 : Absolute packer element pressure
~Params ----------------------------------------------------
LATI.DEG 0.0 : Latitude
LONG.DEG 0.0 : Longitude
~Other -----------------------------------------------------
~ASCII -----------------------------------------------------
# ...
 15372.00000 2358.95410 61330.19531 5494.28662  232.36255    3.00000    0.00000   61.33020 2363.00000
 15372.12500 2358.95410 61330.19531 5494.28662  232.36255    3.00000    0.00000   61.33020 2363.00000
 15372.25000 2358.95361 61330.19531 5494.28662  232.36258    3.00000    0.00000   61.33020 2363.00000
 15372.37500 2358.95312 61330.19531 5494.28662  232.36259    0.00000    0.00000   61.33020 2360.00000
 15372.50000 2358.95264 61330.19531 5494.28662  232.36263    0.00000    0.00000   61.33020 2360.00000
 15372.62500 2358.95239 61330.19531 5494.28662  232.36267    0.00000    0.00000   61.33020 2360.00000
 15372.75000 2358.95215 61330.19531 5494.28662  232.36269    0.00000    0.00000   61.33020 2360.00000
 15372.87500 2358.95215 61330.19531 5494.28662  232.36272    3.00000    0.00000   61.33020 2363.00000
 15373.00000 2358.95215 61330.19531 5494.28662  232.36275    3.00000    0.00000   61.33020 2363.00000
 15373.12500 2358.95312 61330.19531 5494.28662  232.36275    3.00000    0.00000   61.33020 2363.00000
 15373.25000 2358.95361 61330.19531 5494.28662  232.36278    3.00000    0.00000   61.33020 2363.00000
 15373.37500 2358.95435 61330.19531 5494.28662  232.36279    3.00000    0.00000   61.33020 2363.00000
 15373.50000 2358.95483 61330.19531 5494.28662  232.36285    3.00000    0.00000   61.33020 2363.00000
 15373.62500 2358.95459 61330.19531 5494.28662  232.36288    0.00000    0.00000   61.33020 2360.00000
 15373.75000 2358.95386 61330.19531 5494.28662  232.36290    0.00000    0.00000   61.33020 2360.00000
 15373.87500 2358.95264 61330.19531 5494.28662  232.36292    3.00000    0.00000   61.33020 2363.00000
 15374.00000 2358.95093 61330.19531 5494.28662  232.36296    3.00000    0.00000   61.33020 2363.00000
 15374.12500 2358.95020 61330.19531 5494.28662  232.36296    3.00000    0.00000   61.33020 2363.00000
 15374.25000 2358.94971 61330.19531 5494.28662  232.36299    3.00000    0.00000   61.33020 2363.00000
 15374.37500 2358.94995 61330.19531 5494.28662  232.36302    3.00000    0.00000   61.33020 2363.00000
 15374.50000 2358.95093 61330.19531 5494.28662  232.36302    3.00000    0.00000   61.33020 2363.00000
 15374.62500 2358.95166 61330.19531 5494.28662  232.36304    3.00000    0.00000   61.33020 2363.00000
 15374.75000 2358.95215 61330.19531 5494.28662  232.36307    3.00000    0.00000   61.33020 2363.00000
 15374.87500 2358.95215 61330.19531 5494.28662  232.36307    3.00000    0.00000   61.33020 2363.00000
 15375.00000 2358.95190 61330.19531 5494.28662  232.36310    3.00000    0.00000   61.33020 2363.00000
 15375.12500 2358.95166    -999.25 5494.28662  232.36310    3.00000    0.00000   61.33020 2363.00000
 15375.25000 2358.95215    -999.25 5494.28662  232.36313    3.00000    0.00000   61.33020 2363.00000
 15375.37500 2358.95312    -999.25 5494.28662  232.36314    3.00000    0.00000   61.33020 2363.00000
 15375.50000 2358.95459    -999.25 5494.28662  232.36317    3.00000    0.00000   61.33020 2363.00000
 15375.62500 2358.95557    -999.25 5494.28662  232.36320    3.00000    0.00000   61.33020 2363.00000
 15375.75000 2358.95532    -999.25 5494.28662  232.36324    3.00000    0.00000   61.33020 2363.00000
 15375.87500 2358.95386    -999.25 5494.28662  232.36330    9.00000    0.00000   61.33020 2369.00000
 15376.00000 2358.95166    -999.25 5494.28662  232.36330    9.00000    0.00000   61.33020 2369.00000
 15376.12500 2358.94971    -999.25 5494.28662  232.36333    3.00000    0.00000   61.33020 2363.00000
 15376.25000 2358.94873    -999.25 5494.28662  232.36334    3.00000    0.00000   61.33020 2363.00000
 15376.37500 2358.94873    -999.25 5494.28662  232.36336    3.00000    0.00000   61.33020 2363.00000
 15376.50000 2358.94946    -999.25 5494.28662  232.36337    3.00000    0.00000   61.33020 2363.00000
 15376.62500 2358.95044    -999.25 5494.28662  232.36340    3.00000    0.00000   61.33020 2363.00000
 15376.75000 2358.95117    -999.25 5494.28662  232.36343    3.00000    0.00000   61.33020 2363.00000
 15376.87500 2358.95142    -999.25 5494.28662  232.36345    3.00000    0.00000   61.33020 2363.00000
 15377.00000 2358.95142    -999.25 5494.28662  232.36348    3.00000    0.00000   61.33020 2363.00000
 15377.12500 2358.95117    -999.25 5494.28662  232.36348    3.00000    0.00000   61.33020 2363.00000
 15377.25000 2358.95068    -999.25 5494.28662  232.36351    3.00000    0.00000   61.33020 2363.00000
 15377.37500 2358.95020    -999.25 5494.28662  232.36354    0.00000    0.00000   61.33020 2360.00000
 15377.50000 2358.94873    -999.25 5494.28662  232.36357    0.00000    0.00000   61.33020 2360.00000
 15377.62500 2358.94556    -999.25 5494.28662  232.36359    0.00000    0.00000   61.33020 2360.00000
 15377.75000 2358.94116    -999.25 5494.28662  232.36365    0.00000    0.00000   61.33020 2360.00000
 15377.87500 2358.93579    -999.25 5494.28662  232.36366   18.00000    0.00000   61.33020 2378.00000
 15378.00000 2358.93115    -999.25 5494.28662  232.36366   18.00000    0.00000   61.33020 2378.00000
 15378.12500 2358.92822    -999.25 5494.28662  232.36368   24.00000    0.00000   61.33020 2384.00000
 15378.25000 2358.92822    -999.25 5494.28662  232.36368   24.00000    0.00000   61.33020 2384.00000
 15378.37500 2358.93042    -999.25 5494.28662  232.36371   33.00000    0.00000   61.33020 2393.00000
 15378.50000 2358.93408    -999.25 5494.28662  232.36372   33.00000    0.00000   61.33020 2393.00000
 15378.62500 2358.93750    -999.25 5494.28662  232.36378   27.00000    0.00000   61.33020 2387.00000
 15378.75000 2358.94043    -999.25 5494.28662  232.36383   27.00000    0.00000   61.33020 2387.00000
 15378.87500 2358.94238    -999.25 5494.28662  232.36385   27.00000    0.00000   61.33020 2387.00000
 15379.00000 2358.94360    -999.25 5494.28662  232.36385   27.00000    0.00000   61.33020 2387.00000
 15379.12500 2358.94482    -999.25 5494.28662  232.36385   33.00000    0.00000   61.33020 2393.00000
 15379.25000 2358.94727    -999.25 5494.28662  232.36386   33.00000    0.00000   61.33020 2393.00000
 15379.37500 2358.95190    -999.25 5494.28662  232.36389   24.00000    0.00000   61.33020 2384.00000
 15379.50000 2358.95825    -999.25 5494.28662  232.36394   24.00000    0.00000   61.33020 2384.00000
 15379.62500 2358.96411    -999.25 5494.28662  232.36395   27.00000    0.00000   61.33020 2387.00000
 15379.75000 2358.96826    -999.25 5494.28662  232.36400   27.00000    0.00000   61.33020 2387.00000
 15379.87500 2358.96924    -999.25 5494.28662  232.36400    0.00000    0.00000   61.33020 2360.00000
 15380.00000 2358.96680    -999.25 5494.28662  232.36403    0.00000    0.00000   61.33020 2360.00000
 15380.12500 2358.96216    -999.25 5494.28662  232.36404    0.00000    0.00000   61.33020 2360.00000
 15380.25000 2358.95801    -999.25 5494.28662  232.36406    0.00000    0.00000   61.33020 2360.00000
 15380.37500 2358.95557    -999.25 5494.28662  232.36409    0.00000    0.00000   61.33020 2360.00000
 15380.50000    -999.25    -999.25 5494.28662    -999.25    0.00000    0.00000   61.33020 2360.00000
 15380.62500    -999.25    -999.25 5494.28662    -999.25    0.00000    0.00000   61.33020 2360.00000
 15380.75000    -999.25    -999.25 5494.28662    -999.25    0.00000    0.00000   61.33020 2360.00000
 15380.87500    -999.25    -999.25 5494.28662    -999.25    0.00000    0.00000   61.33020 2360.00000
 15381.00000    -999.25    -999.25 5494.28662    -999.25    0.00000    0.00000   61.33020 2360.00000
 15381.12500    -999.25    -999.25 5494.28662    -999.25    0.00000    0.00000   61.33020 2360.00000
 15381.25000    -999.25    -999.25 5494.28662    -999.25    0.00000    0.00000   61.33020 2360.00000
 15381.37500    -999.25    -999.25 5494.28662    -999.25    0.00000    0.00000   61.33020 2360.00000
 15381.50000    -999.25    -999.25 5494.28662    -999.25    0.00000    0.00000   61.33020 2360.00000
 15381.62500    -999.25    -999.25 5494.28662    -999.25    0.00000    0.00000   61.33020 2360.00000
 15381.75000    -999.25    -999.25 5494.28662    -999.25    0.00000    0.00000   61.33020 2360.00000
