~Version ---------------------------------------------------
VERS. 2.0 : CWLS log ASCII Standard -VERSION 2.0
WRAP.  NO : One line per frame
~Well ------------------------------------------------------
STRT.S                         0.0 : Starting Time
STOP.S                     15391.0 : Ending Time
STEP.S                       0.125 : Level Spacing
NULL.                      -999.25 : Absent Value
COMP.  BATTELLE MEMORIAL INSTITUTE : Company
WELL.             FORGE 16B(78)-32 : Well
FLD .                        FORGE : Field
LOC .                              : Location
CNTY.                       BEAVER : County
STAT.                         UTAH : State
CTRY.                          USA : Country
SRVC.                 Baker Hughes : Service Company
DATE. Wed Jun 28 07:03:31 2023 Z-7 : Log Date
API .                              : API Number
UWI .                              : Unique Well ID
DEPTHMD .ft          5494.27930    : Measured Depth
DEPTHTVD .ft            5494.00    : True Vertical Depth
~Curve Information -----------------------------------------
TIME   .S    99 995 99  1 : System time since record start
APQJ   .psi  99 995 99  1 : 1970JB Quartzdyne gauge pressure
CPTV   .cm3  99 995 99  1 : Cumulative pump-through volume
DBDEPTH.ft   99 995 99  1 : Depth of 1970DB straddle packer
RTDQJ  .degF 99 995 99  1 : 1970JB Quartzdyne pressure gauge temperature
SPEP   .psi  99 995 99  1 : Packer element pressure
PTFRC  .cc/s 99 995 99  1 : Rate (injection and flowback)
CPTVF  .L    99 995 99  1 : Continuous pump-through volume
ASPEP  .psi  99 995 99  1 : Absolute packer element pressure
~Params ----------------------------------------------------
LATI.DEG 0.0 : Latitude
LONG.DEG 0.0 : Longitude
~Other -----------------------------------------------------
~ASCII -----------------------------------------------------
# ...
 13337.75000 3256.93359 44529.72656 5494.28906  231.95901 1482.00000    0.00000   44.54253 3842.00000
 13337.87500 3256.92773 44529.72656 5494.28906  231.95906 1488.00000    0.00000   44.54253 3848.00000
 13338.00000 3256.92212 44529.72656 5494.28906  231.95909 1488.00000    0.00000   44.54253 3848.00000
 13338.12500 3256.91602 44529.72656 5494.28906  231.95915 1488.00000    0.00000   44.54254 3848.00000
 13338.25000 3256.91016 44529.72656 5494.28906  231.95917 1488.00000    0.00000   44.54254 3848.00000
 13338.37500 3256.90356 44529.72656 5494.28906  231.95920 1482.00000    0.00000   44.54254 3842.00000
 13338.50000 3256.89697 44529.72656 5494.28906  231.95924 1482.00000    0.00000   44.54255 3842.00000
 13338.62500 3256.88989 44529.72656 5494.28906  231.95929 1482.00000    0.00000   44.54255 3842.00000
 13338.75000 3256.88281 44529.72656 5494.28906  231.95934 1482.00000    0.00000   44.54255 3842.00000
 13338.87500 3256.87573 44529.72656 5494.28906  231.95938 1488.00000    0.00000   44.54255 3848.00000
 13339.00000 3256.86963 44529.72656 5494.28906  231.95941 1488.00000    0.00000   44.54256 3848.00000
 13339.12500 3256.86377 44529.72656 5494.28906  231.95943 1488.00000    0.00000   44.54256 3848.00000
 13339.25000 3256.85840 44529.72656 5494.28906  231.95946 1488.00000    0.00000   44.54256 3848.00000
 13339.37500 3256.85229 44529.72656 5494.28906  231.95949 1482.00000    0.00000   44.54257 3842.00000
 13339.50000 3256.84619 44529.72656 5494.28906  231.95955 1482.00000    0.00000   44.54257 3842.00000
 13339.62500 3256.84033 44529.72656 5494.28906  231.95959 1482.00000    0.00000   44.54257 3842.00000
 13339.75000 3256.83374 44529.72656 5494.28906  231.95966 1482.00000    0.00000   44.54257 3842.00000
 13339.87500 3256.82715 44529.72656 5494.28906  231.95970 1488.00000    0.00000   44.54258 3848.00000
 13340.00000 3256.82031 44529.72656 5494.28906  231.95973 1488.00000    0.00000   44.54258 3848.00000
 13340.12500 3256.81372 44529.72656 5494.28906  231.95973 1488.00000    0.00000   44.54258 3848.00000
 13340.25000 3256.80737 44529.72656 5494.28906  231.95973 1488.00000    0.00000   44.54259 3848.00000
 13340.37500 3256.80127 44529.72656 5494.28906  231.95976 1482.00000    0.00000   44.54259 3842.00000
 13340.50000 3256.79492 44529.72656 5494.28906  231.95979 1482.00000    0.00000   44.54259 3842.00000
 13340.62500 3256.78857 44529.72656 5494.28906  231.95984 1488.00000    0.00000   44.54259 3848.00000
 13340.75000 3256.78174 44529.72656 5494.28906  231.95990 1488.00000    0.00000   44.54260 3848.00000
 13340.87500 3256.77539 44529.72656 5494.28906  231.95996 1482.00000    0.00000   44.54260 3842.00000
 13341.00000 3256.76880 44529.72656 5494.28906  231.95999 1482.00000    0.00000   44.54260 3842.00000
 13341.12500 3256.76221 44529.72656 5494.28906  231.96001 1482.00000    0.00000   44.54260 3842.00000
 13341.25000 3256.75610 44529.72656 5494.28906  231.96005 1482.00000    0.00000   44.54261 3842.00000
 13341.37500 3256.75000 44529.72656 5494.28906  231.96010 1482.00000    0.00000   44.54261 3842.00000
 13341.50000 3256.74438 44529.72656 5494.28906  231.96013 1482.00000    0.00000   44.54261 3842.00000
 13341.62500 3256.73877 44529.72656 5494.28906  231.96017 1488.00000    0.00000   44.54262 3848.00000
 13341.75000 3256.73291 44529.72656 5494.28906  231.96024 1488.00000    0.00000   44.54262 3848.00000
 13341.87500 3256.72705 44529.72656 5494.28906  231.96025 1488.00000    0.00000   44.54262 3848.00000
 13342.00000 3256.72119 44529.72656 5494.28906  231.96028 1488.00000    0.00000   44.54262 3848.00000
 13342.12500 3256.71509 44529.72656 5494.28906  231.96034 1482.00000    0.00000   44.54263 3842.00000
 13342.25000 3256.70947 44529.72656 5494.28906  231.96039 1482.00000    0.00000   44.54263 3842.00000
 13342.37500 3256.70312 44529.72656 5494.28906  231.96040 1488.00000    0.00000   44.54263 3848.00000
 13342.50000 3256.69678 44529.72656 5494.28906  231.96045 1488.00000    0.00000   44.54264 3848.00000
 13342.62500 3256.68994 44529.72656 5494.28906  231.96049 1482.00000    0.00000   44.54264 3842.00000
 13342.75000 3256.68335 44529.72656 5494.28906  231.96051 1482.00000    0.00000   44.54264 3842.00000
 13342.87500 3256.67603 44529.72656 5494.28906  231.96056 1482.00000    0.00000   44.54264 3842.00000
 13343.00000 3256.66943 44529.72656 5494.28906  231.96059 1482.00000    0.00000   44.54265 3842.00000
 13343.12500 3256.66357 44529.72656 5494.28906  231.96065 1488.00000    0.00000   44.54265 3848.00000
 13343.25000 3256.65771 44529.72656 5494.28906  231.96068 1488.00000    0.00000   44.54265 3848.00000
 13343.37500 3256.65234 44529.72656 5494.28906  231.96069 1482.00000    0.00000   44.54266 3842.00000
 13343.50000 3256.64648 44529.72656 5494.28906  231.96075 1482.00000    0.00000   44.54266 3842.00000
 13343.62500 3256.64038 44529.72656 5494.28906  231.96078 1482.00000    0.00000   44.54266 3842.00000
 13343.75000 3256.63379 44529.72656 5494.28906  231.96083 1482.00000    0.00000   44.54266 3842.00000
 13343.87500 3256.62744 44529.72656 5494.28906  231.96088 1482.00000    0.00000   44.54267 3842.00000
 13344.00000 3256.62061 44529.72656 5494.28906  231.96089 1482.00000    0.00000   44.54267 3842.00000
 13344.12500 3256.61426 44529.72656 5494.28906  231.96094 1488.00000    0.00000   44.54267 3848.00000
 13344.25000 3256.60791 44529.72656 5494.28906  231.96095 1488.00000    0.00000   44.54268 3848.00000
 13344.37500 3256.60132 44529.72656 5494.28906  231.96100 1488.00000    0.00000   44.54268 3848.00000
 13344.50000 3256.59497 44529.72656 5494.28906  231.96103 1488.00000    0.00000   44.54268 3848.00000
 13344.62500 3256.58887 44529.72656 5494.28906  231.96107 1488.00000    0.00000   44.54268 3848.00000
 13344.75000 3256.58228 44529.72656 5494.28906  231.96111 1488.00000    0.00000   44.54269 3848.00000
 13344.87500 3256.57568 44529.72656 5494.28906  231.96115 1482.00000    0.00000   44.54269 3842.00000
 13345.00000 3256.56934 44529.72656 5494.28906  231.96120 1482.00000    0.00000   44.54269 3842.00000
 13345.12500 3256.56299 44529.72656 5494.28906  231.96124 1488.00000    0.00000   44.54269 3848.00000
 13345.25000 3256.55640 44529.72656 5494.28906  231.96127 1488.00000    0.00000   44.54270 3848.00000
 13345.37500 3256.54980 44529.72656 5494.28906  231.96133 1482.00000    0.00000   44.54270 3842.00000
 13345.50000 3256.54346 44529.72656 5494.28906  231.96135 1482.00000    0.00000   44.54270 3842.00000
 13345.62500 3256.53711 44529.72656 5494.28906  231.96138 1482.00000    0.00000   44.54271 3842.00000
 13345.75000 3256.53125 44529.72656 5494.28906  231.96144 1482.00000    0.00000   44.54271 3842.00000
 13345.87500 3256.52588 44529.72656 5494.28906  231.96146 1488.00000    0.00000   44.54271 3848.00000
 13346.00000 3256.52051 44529.72656 5494.28906  231.96149 1488.00000    0.00000   44.54271 3848.00000
 13346.12500 3256.51440 44529.72656 5494.28906  231.96152 1479.00000    0.00000   44.54272 3839.00000
 13346.25000 3256.50781 44529.72656 5494.28906  231.96155 1479.00000    0.00000   44.54272 3839.00000
 13346.37500 3256.50171 44529.72656 5494.28906  231.96159 1482.00000    0.00000   44.54272 3842.00000
 13346.50000 3256.49561 44529.72656 5494.28906  231.96162 1482.00000    0.00000   44.54273 3842.00000
 13346.62500 3256.48877 44529.72656 5494.28906  231.96165 1482.00000    0.00000   44.54273 3842.00000
 13346.75000 3256.48267 44529.72656 5494.28906  231.96169 1482.00000    0.00000   44.54273 3842.00000
 13346.87500 3256.47632 44529.72656 5494.28906  231.96172 1482.00000    0.00000   44.54273 3842.00000
 13347.00000 3256.46997 44529.72656 5494.28906  231.96176 1482.00000    0.00000   44.54274 3842.00000
 13347.12500 3256.46338 44529.72656 5494.28906  231.96179 1482.00000    0.00000   44.54274 3842.00000
 13347.25000 3256.45703 44529.72656 5494.28906  231.96184 1482.00000    0.00000   44.54274 3842.00000
 13347.37500 3256.45093 44529.72656 5494.28906  231.96190 1482.00000    0.00000   44.54275 3842.00000
 13347.50000 3256.44482 44529.72656 5494.28906  231.96193 1482.00000    0.00000   44.54275 3842.00000
