~Version ---------------------------------------------------
VERS. 2.0 : CWLS log ASCII Standard -VERSION 2.0
WRAP.  NO : One line per frame
~Well ------------------------------------------------------
STRT.S                         0.0 : Starting Time
STOP.S                     15391.0 : Ending Time
STEP.S                       0.125 : Level Spacing
NULL.                      -999.25 : Absent Value
COMP.  BATTELLE MEMORIAL INSTITUTE : Company
WELL.             FORGE 16B(78)-32 : Well
FLD .                        FORGE : Field
LOC .                              : Location
CNTY.                       BEAVER : County
STAT.                         UTAH : State
CTRY.                          USA : Country
SRVC.                 Baker Hughes : Service Company
DATE. Wed Jun 28 07:03:31 2023 Z-7 : Log Date
API .                              : API Number
UWI .                              : Unique Well ID
DEPTHMD .ft          5494.27930    : Measured Depth
DEPTHTVD .ft            5494.00    : True Vertical Depth
~Curve Information -----------------------------------------
TIME   .S    99 995 99  1 : System time since record start
APQJ   .psi  99 995 99  1 : 1970JB Quartzdyne gauge pressure
CPTV   .cm3  99 995 99  1 : Cumulative pump-through volume
DBDEPTH.ft   99 995 99  1 : Depth of 1970DB straddle packer
RTDQJ  .degF 99 995 99  1 : 1970JB Quartzdyne pressure gauge temperature
SPEP   .psi  99 995 99  1 : Packer element pressure
PTFRC  .cc/s 99 995 99  1 : Rate (injection and flowback)
CPTVF  .L    99 995 99  1 : Continuous pump-through volume
ASPEP  .psi  99 995 99  1 : Absolute packer element pressure
~Params ----------------------------------------------------
LATI.DEG 0.0 : Latitude
LONG.DEG 0.0 : Longitude
~Other -----------------------------------------------------
~ASCII -----------------------------------------------------
# ...
 3090.00000 3139.48096 26412.99805 5494.30225  229.43919 1365.00000    0.00000   26.41324 3725.00000
 3090.12500 3139.47021 26412.99805 5494.30225  229.43919 1365.00000    0.00000   26.41324 3725.00000
 3090.25000 3139.45923 26412.99805 5494.30225  229.43919 1365.00000    0.00000   26.41324 3725.00000
 3090.37500 3139.44775 26412.99805 5494.30225  229.43925 1365.00000    0.00000   26.41324 3725.00000
 3090.50000 3139.43604 26412.99805 5494.30225  229.43929 1365.00000    0.00000   26.41324 3725.00000
 3090.62500 3139.42480 26412.99805 5494.30225  229.43930 1365.00000    0.00000   26.41324 3725.00000
 3090.75000 3139.41357 26412.99805 5494.30225  229.43935 1365.00000    0.00000   26.41324 3725.00000
 3090.87500 3139.40259 26412.99805 5494.30225  229.43936 1365.00000    0.00000   26.41324 3725.00000
 3091.00000 3139.39111 26412.99805 5494.30225  229.43935 1365.00000    0.00000   26.41324 3725.00000
 3091.12500 3139.37988 26412.99805 5494.30225  229.43935 1365.00000    0.00000   26.41324 3725.00000
 3091.25000 3139.36816 26412.99805 5494.30225  229.43933 1365.00000    0.00000   26.41324 3725.00000
 3091.37500 3139.35669 26412.99805 5494.30225  229.43935 1365.00000    0.00000   26.41324 3725.00000
 3091.50000 3139.34546 26412.99805 5494.30225  229.43938 1365.00000    0.00000   26.41324 3725.00000
 3091.62500 3139.33496 26412.99805 5494.30225  229.43939 1365.00000    0.00000   26.41324 3725.00000
 3091.75000 3139.32422 26412.99805 5494.30225  229.43944 1365.00000    0.00000   26.41324 3725.00000
 3091.87500 3139.31372 26412.99805 5494.30225  229.43944 1371.00000    0.00000   26.41324 3731.00000
 3092.00000 3139.30273 26412.99805 5494.30225  229.43947 1371.00000    0.00000   26.41324 3731.00000
 3092.12500 3139.29053 26412.99805 5494.30225  229.43944 1365.00000    0.00000   26.41324 3725.00000
 3092.25000 3139.27832 26412.99805 5494.30225  229.43947 1365.00000    0.00000   26.41324 3725.00000
 3092.37500 3139.26611 26412.99805 5494.30225  229.43950 1365.00000    0.00000   26.41324 3725.00000
 3092.50000 3139.25439 26412.99805 5494.30225  229.43953 1365.00000    0.00000   26.41325 3725.00000
 3092.62500 3139.24268 26412.99805 5494.30225  229.43956 1365.00000    0.00000   26.41325 3725.00000
 3092.75000 3139.23120 26412.99805 5494.30225  229.43956 1365.00000    0.00000   26.41325 3725.00000
 3092.87500 3139.21973 26412.99805 5494.30225  229.43956 1365.00000    0.00000   26.41325 3725.00000
 3093.00000 3139.20801 26412.99805 5494.30225  229.43956 1365.00000    0.00000   26.41325 3725.00000
 3093.12500 3139.19702 26412.99805 5494.30225  229.43956 1362.00000    0.00000   26.41325 3722.00000
 3093.25000 3139.18555 26412.99805 5494.30225  229.43958 1362.00000    0.00000   26.41325 3722.00000
 3093.37500 3139.17432 26412.99805 5494.30225  229.43958 1362.00000    0.00000   26.41325 3722.00000
 3093.50000 3139.16309 26412.99805 5494.30225  229.43959 1362.00000    0.00000   26.41325 3722.00000
 3093.62500 3139.15161 26412.99805 5494.30225  229.43961 1365.00000    0.00000   26.41325 3725.00000
 3093.75000 3139.14062 26412.99805 5494.30225  229.43964 1365.00000    0.00000   26.41325 3725.00000
 3093.87500 3139.12939 26412.99805 5494.30225  229.43967 1365.00000    0.00000   26.41325 3725.00000
 3094.00000 3139.11841 26412.99805 5494.30225  229.43967 1365.00000    0.00000   26.41325 3725.00000
 3094.12500 3139.10742 26412.99805 5494.30225  229.43970 1371.00000    0.00000   26.41325 3731.00000
 3094.25000 3139.09570 26412.99805 5494.30225  229.43970 1371.00000    0.00000   26.41325 3731.00000
 3094.37500 3139.08398 26412.99805 5494.30225  229.43971 1362.00000    0.00000   26.41325 3722.00000
 3094.50000 3139.07227 26412.99805 5494.30225  229.43974 1362.00000    0.00000   26.41325 3722.00000
 3094.62500 3139.06104 26412.99805 5494.30225  229.43977 1365.00000    0.00000   26.41325 3725.00000
 3094.75000 3139.04980 26412.99805 5494.30225  229.43979 1365.00000    0.00000   26.41325 3725.00000
 3094.87500 3139.03906 26412.99805 5494.30225  229.43980 1371.00000    0.00000   26.41325 3731.00000
 3095.00000 3139.02783 26412.99805 5494.30225  229.43980 1371.00000    0.00000   26.41325 3731.00000
 3095.12500 3139.01685 26412.99805 5494.30225  229.43983 1371.00000    0.00000   26.41325 3731.00000
 3095.25000 3139.00537 26412.99805 5494.30225  229.43985 1371.00000    0.00000   26.41325 3731.00000
 3095.37500 3138.99365 26412.99805 5494.30225  229.43987 1365.00000    0.00000   26.41325 3725.00000
 3095.50000 3138.98218 26412.99805 5494.30225  229.43991 1365.00000    0.00000   26.41325 3725.00000
 3095.62500 3138.97070 26412.99805 5494.30225  229.43993 1371.00000    0.00000   26.41325 3731.00000
 3095.75000 3138.95996 26412.99805 5494.30225  229.43993 1371.00000    0.00000   26.41325 3731.00000
 3095.87500 3138.94922 26412.99805 5494.30225  229.43991 1362.00000    0.00000   26.41325 3722.00000
 3096.00000 3138.93848 26412.99805 5494.30225  229.43991 1362.00000    0.00000   26.41325 3722.00000
 3096.12500 3138.92700 26412.99805 5494.30225  229.43991 1365.00000    0.00000   26.41325 3725.00000
 3096.25000 3138.91577 26412.99805 5494.30225  229.43991 1365.00000    0.00000   26.41325 3725.00000
 3096.37500 3138.90454 26412.99805 5494.30225  229.43994 1362.00000    0.00000   26.41325 3722.00000
 3096.50000 3138.89355 26412.99805 5494.30225  229.43997 1362.00000    0.00000   26.41325 3722.00000
 3096.62500 3138.88306 26412.99805 5494.30225  229.43999 1362.00000    0.00000   26.41325 3722.00000
 3096.75000 3138.87280 26412.99805 5494.30225  229.44000 1362.00000    0.00000   26.41325 3722.00000
 3096.87500 3138.86206 26412.99805 5494.30225  229.44003 1365.00000    0.00000   26.41325 3725.00000
 3097.00000 3138.85107 26412.99805 5494.30225  229.44005 1365.00000    0.00000   26.41325 3725.00000
 3097.12500 3138.83960 26412.99805 5494.30225  229.44006 1365.00000    0.00000   26.41325 3725.00000
 3097.25000 3138.82812 26412.99805 5494.30225  229.44008 1365.00000    0.00000   26.41325 3725.00000
 3097.37500 3138.81641 26412.99805 5494.30225  229.44008 1362.00000    0.00000   26.41325 3722.00000
 3097.50000 3138.80493 26412.99805 5494.30225  229.44011 1362.00000    0.00000   26.41325 3722.00000
 3097.62500 3138.79346 26412.99805 5494.30225  229.44012 1365.00000    0.00000   26.41325 3725.00000
 3097.75000 3138.78223 26412.99805 5494.30225  229.44012 1365.00000    0.00000   26.41325 3725.00000
 3097.87500 3138.77100 26412.99805 5494.30225  229.44014 1365.00000    0.00000   26.41325 3725.00000
 3098.00000 3138.76025 26412.99805 5494.30225  229.44016 1365.00000    0.00000   26.41325 3725.00000
 3098.12500 3138.74976 26412.99805 5494.30225  229.44019 1365.00000    0.00000   26.41325 3725.00000
 3098.25000 3138.73901 26412.99805 5494.30225  229.44019 1365.00000    0.00000   26.41325 3725.00000
 3098.37500 3138.72803 26412.99805 5494.30225  229.44019 1371.00000    0.00000   26.41325 3731.00000
 3098.50000 3138.71704 26412.99805 5494.30225  229.44022 1371.00000    0.00000   26.41325 3731.00000
 3098.62500 3138.70605 26412.99805 5494.30225  229.44025 1365.00000    0.00000   26.41325 3725.00000
 3098.75000 3138.69458 26412.99805 5494.30225  229.44026 1365.00000    0.00000   26.41325 3725.00000
 3098.87500 3138.68311 26412.99805 5494.30225  229.44029 1365.00000    0.00000   26.41325 3725.00000
 3099.00000 3138.67188 26412.99805 5494.30225  229.44032 1365.00000    0.00000   26.41325 3725.00000
 3099.12500 3138.66064 26412.99805 5494.30225  229.44035 1365.00000    0.00000   26.41325 3725.00000
 3099.25000 3138.64941 26412.99805 5494.30225  229.44035 1365.00000    0.00000   26.41325 3725.00000
 3099.37500 3138.63818 26412.99805 5494.30225  229.44035 1365.00000    0.00000   26.41325 3725.00000
 3099.50000 3138.62720 26412.99805 5494.30225  229.44035 1365.00000    0.00000   26.41325 3725.00000
 3099.62500 3138.61621 26412.99805 5494.30225  229.44038 1362.00000    0.00000   26.41325 3722.00000
 3099.75000 3138.60547 26412.99805 5494.30225  229.44040 1362.00000    0.00000   26.41325 3722.00000
 3099.87500 3138.59497 26412.99805 5494.30225  229.44040 1365.00000    0.00000   26.41325 3725.00000
