~Version ---------------------------------------------------
VERS. 2.0 : CWLS log ASCII Standard -VERSION 2.0
WRAP.  NO : One line per frame
~Well ------------------------------------------------------
STRT.S                         0.0 : Starting Time
STOP.S                     15391.0 : Ending Time
STEP.S                       0.125 : Level Spacing
NULL.                      -999.25 : Absent Value
COMP.  BATTELLE MEMORIAL INSTITUTE : Company
WELL.             FORGE 16B(78)-32 : Well
FLD .                        FORGE : Field
LOC .                              : Location
CNTY.                       BEAVER : County
STAT.                         UTAH : State
CTRY.                          USA : Country
SRVC.                 Baker Hughes : Service Company
DATE. Wed Jun 28 07:03:31 2023 Z-7 : Log Date
API .                              : API Number
UWI .                              : Unique Well ID
DEPTHMD .ft          5494.27930    : Measured Depth
DEPTHTVD .ft            5494.00    : True Vertical Depth
~Curve Information -----------------------------------------
TIME   .S    99 995 99  1 : System time since record start
APQJ   .psi  99 995 99  1 : 1970JB Quartzdyne gauge pressure
CPTV   .cm3  99 995 99  1 : Cumulative pump-through volume
DBDEPTH.ft   99 995 99  1 : Depth of 1970DB straddle packer
RTDQJ  .degF 99 995 99  1 : 1970JB Quartzdyne pressure gauge temperature
SPEP   .psi  99 995 99  1 : Packer element pressure
PTFRC  .cc/s 99 995 99  1 : Rate (injection and flowback)
CPTVF  .L    99 995 99  1 : Continuous pump-through volume
ASPEP  .psi  99 995 99  1 : Absolute packer element pressure
~Params ----------------------------------------------------
LATI.DEG 0.0 : Latitude
LONG.DEG 0.0 : Longitude
~Other -----------------------------------------------------
~ASCII -----------------------------------------------------
# ...
 10286.37500 2384.14697 36207.73828 5494.28906  230.98602  429.00000    0.00000   36.20785 2789.00000
 10286.50000 2384.14868 36207.73828 5494.28906  230.98604  429.00000    0.00000   36.20785 2789.00000
 10286.62500 2384.15015 36207.73828 5494.28906  230.98608  429.00000    0.00000   36.20785 2789.00000
 10286.75000 2384.15112 36207.73828 5494.28906  230.98610  429.00000    0.00000   36.20785 2789.00000
 10286.87500 2384.15234 36207.73828 5494.28906  230.98613  429.00000    0.00000   36.20785 2789.00000
 10287.00000 2384.15332 36207.73828 5494.28906  230.98616  429.00000    0.00000   36.20785 2789.00000
 10287.12500 2384.15454 36207.73828 5494.28906  230.98616  429.00000    0.00000   36.20785 2789.00000
 10287.25000 2384.15601 36207.73828 5494.28906  230.98616  429.00000    0.00000   36.20785 2789.00000
 10287.37500 2384.15747 36207.73828 5494.28906  230.98618  432.00000    0.00000   36.20785 2792.00000
 10287.50000 2384.15918 36207.73828 5494.28906  230.98621  432.00000    0.00000   36.20785 2792.00000
 10287.62500 2384.16064 36207.73828 5494.28906  230.98627  429.00000    0.00000   36.20785 2789.00000
 10287.75000 2384.16260 36207.73828 5494.28906  230.98630  429.00000    0.00000   36.20785 2789.00000
 10287.87500 2384.16382 36207.73828 5494.28906  230.98634  429.00000    0.00000   36.20785 2789.00000
 10288.00000 2384.16528 36207.73828 5494.28906  230.98637  429.00000    0.00000   36.20785 2789.00000
 10288.12500 2384.16626 36207.73828 5494.28906  230.98637  429.00000    0.00000   36.20785 2789.00000
 10288.25000 2384.16724 36207.73828 5494.28906  230.98637  429.00000    0.00000   36.20785 2789.00000
 10288.37500 2384.16797 36207.73828 5494.28906  230.98637  432.00000    0.00000   36.20785 2792.00000
 10288.50000 2384.16919 36207.73828 5494.28906  230.98637  432.00000    0.00000   36.20785 2792.00000
 10288.62500 2384.17065 36207.73828 5494.28906  230.98643  429.00000    0.00000   36.20785 2789.00000
 10288.75000 2384.17261 36207.73828 5494.28906  230.98645  429.00000    0.00000   36.20785 2789.00000
 10288.87500 2384.17432 36207.73828 5494.28906  230.98651  429.00000    0.00000   36.20785 2789.00000
 10289.00000 2384.17554 36207.73828 5494.28906  230.98654  429.00000    0.00000   36.20785 2789.00000
 10289.12500 2384.17676 36207.73828 5494.28906  230.98657  429.00000    0.00000   36.20785 2789.00000
 10289.25000 2384.17773 36207.73828 5494.28906  230.98659  429.00000    0.00000   36.20785 2789.00000
 10289.37500 2384.17847 36207.73828 5494.28906  230.98659  432.00000    0.00000   36.20785 2792.00000
 10289.50000 2384.17969 36207.73828 5494.28906  230.98660  432.00000    0.00000   36.20785 2792.00000
 10289.62500 2384.18091 36207.73828 5494.28906  230.98662  432.00000    0.00000   36.20785 2792.00000
 10289.75000 2384.18237 36207.73828 5494.28906  230.98666  432.00000    0.00000   36.20785 2792.00000
 10289.87500 2384.18359 36207.73828 5494.28906  230.98669  432.00000    0.00000   36.20785 2792.00000
 10290.00000 2384.18457 36207.73828 5494.28906  230.98672  432.00000    0.00000   36.20785 2792.00000
 10290.12500 2384.18506 36207.73828 5494.28906  230.98677  429.00000    0.00000   36.20785 2789.00000
 10290.25000 2384.18579 36207.73828 5494.28906  230.98679  429.00000    0.00000   36.20785 2789.00000
 10290.37500 2384.18652 36207.73828 5494.28906  230.98682  429.00000    0.00000   36.20785 2789.00000
 10290.50000 2384.18799 36207.73828 5494.28906  230.98685  429.00000    0.00000   36.20785 2789.00000
 10290.62500 2384.18921 36207.73828 5494.28906  230.98686  429.00000    0.00000   36.20785 2789.00000
 10290.75000 2384.19043 36207.73828 5494.28906  230.98686  429.00000    0.00000   36.20785 2789.00000
 10290.87500 2384.19116 36207.73828 5494.28906  230.98689  429.00000    0.00000   36.20785 2789.00000
 10291.00000 2384.19165 36207.73828 5494.28906  230.98691  429.00000    0.00000   36.20785 2789.00000
 10291.12500 2384.19214 36207.73828 5494.28906  230.98695  429.00000    0.00000   36.20785 2789.00000
 10291.25000 2384.19287 36207.73828 5494.28906  230.98697  429.00000    0.00000   36.20785 2789.00000
 10291.37500 2384.19385 36207.73828 5494.28906  230.98700  429.00000    0.00000   36.20785 2789.00000
 10291.50000 2384.19556 36207.73828 5494.28906  230.98701  429.00000    0.00000   36.20785 2789.00000
 10291.62500 2384.19702 36207.73828 5494.28906  230.98703  432.00000    0.00000   36.20785 2792.00000
 10291.75000 2384.19849 36207.73828 5494.28906  230.98706  432.00000    0.00000   36.20785 2792.00000
 10291.87500 2384.19922 36207.73828 5494.28906  230.98706  438.00000    0.00000   36.20785 2798.00000
 10292.00000 2384.19971 36207.73828 5494.28906  230.98711  438.00000    0.00000   36.20785 2798.00000
 10292.12500 2384.20020 36207.73828 5494.28906  230.98712  432.00000    0.00000   36.20785 2792.00000
 10292.25000 2384.20117 36207.73828 5494.28906  230.98715  432.00000    0.00000   36.20785 2792.00000
 10292.37500 2384.20239 36207.73828 5494.28906  230.98717  429.00000    0.00000   36.20785 2789.00000
 10292.50000 2384.20337 36207.73828 5494.28906  230.98720  429.00000    0.00000   36.20785 2789.00000
 10292.62500 2384.20435 36207.73828 5494.28906  230.98723  432.00000    0.00000   36.20785 2792.00000
 10292.75000 2384.20508 36207.73828 5494.28906  230.98724  432.00000    0.00000   36.20785 2792.00000
 10292.87500 2384.20532 36207.73828 5494.28906  230.98726  432.00000    0.00000   36.20786 2792.00000
 10293.00000 2384.20581 36207.73828 5494.28906  230.98729  432.00000    0.00000   36.20786 2792.00000
 10293.12500 2384.20654 36207.73828 5494.28906  230.98732  429.00000    0.00000   36.20786 2789.00000
 10293.25000 2384.20728 36207.73828 5494.28906  230.98734  429.00000    0.00000   36.20786 2789.00000
 10293.37500 2384.20850 36207.73828 5494.28906  230.98737  432.00000    0.00000   36.20786 2792.00000
 10293.50000 2384.20947 36207.73828 5494.28906  230.98740  432.00000    0.00000   36.20786 2792.00000
 10293.62500 2384.20996 36207.73828 5494.28906  230.98740  432.00000    0.00000   36.20786 2792.00000
 10293.75000 2384.21045 36207.73828 5494.28906  230.98741  432.00000    0.00000   36.20786 2792.00000
 10293.87500 2384.21094 36207.73828 5494.28906  230.98741  432.00000    0.00000   36.20786 2792.00000
 10294.00000 2384.21191 36207.73828 5494.28906  230.98746  432.00000    0.00000   36.20786 2792.00000
 10294.12500 2384.21240 36207.73828 5494.28906  230.98747  429.00000    0.00000   36.20786 2789.00000
 10294.25000 2384.21313 36207.73828 5494.28906  230.98752  429.00000    0.00000   36.20786 2789.00000
 10294.37500 2384.21387 36207.73828 5494.28906  230.98753  432.00000    0.00000   36.20786 2792.00000
 10294.50000 2384.21436 36207.73828 5494.28906  230.98756  432.00000    0.00000   36.20786 2792.00000
 10294.62500 2384.21533 36207.73828 5494.28906  230.98761  432.00000    0.00000   36.20786 2792.00000
 10294.75000 2384.21631 36207.73828 5494.28906  230.98764  432.00000    0.00000   36.20786 2792.00000
 10294.87500 2384.21680 36207.73828 5494.28906  230.98766  429.00000    0.00000   36.20786 2789.00000
 10295.00000 2384.21729 36207.73828 5494.28906  230.98769  429.00000    0.00000   36.20786 2789.00000
 10295.12500 2384.21777 36207.73828 5494.28906  230.98769  429.00000    0.00000   36.20786 2789.00000
 10295.25000 2384.21777 36207.73828 5494.28906  230.98772  429.00000    0.00000   36.20786 2789.00000
 10295.37500 2384.21826 36207.73828 5494.28906  230.98775  432.00000    0.00000   36.20786 2792.00000
 10295.50000 2384.21875 36207.73828 5494.28906  230.98776  432.00000    0.00000   36.20786 2792.00000
 10295.62500 2384.21948 36207.73828 5494.28906  230.98778  429.00000    0.00000   36.20786 2789.00000
 10295.75000 2384.22021 36207.73828 5494.28906  230.98781  429.00000    0.00000   36.20786 2789.00000
 10295.87500 2384.22095 36207.73828 5494.28906  230.98782  432.00000    0.00000   36.20786 2792.00000
 10296.00000 2384.22217 36207.73828 5494.28906  230.98784  432.00000    0.00000   36.20786 2792.00000
 10296.12500 2384.22290 36207.73828 5494.28906  230.98785  429.00000    0.00000   36.20786 2789.00000
