~Version ---------------------------------------------------
VERS. 2.0 : CWLS log ASCII Standard -VERSION 2.0
WRAP.  NO : One line per frame
~Well ------------------------------------------------------
STRT.S                         0.0 : Starting Time
STOP.S                     15391.0 : Ending Time
STEP.S                       0.125 : Level Spacing
NULL.                      -999.25 : Absent Value
COMP.  BATTELLE MEMORIAL INSTITUTE : Company
WELL.             FORGE 16B(78)-32 : Well
FLD .                        FORGE : Field
LOC .                              : Location
CNTY.                       BEAVER : County
STAT.                         UTAH : State
CTRY.                          USA : Country
SRVC.                 Baker Hughes : Service Company
DATE. Wed Jun 28 07:03:31 2023 Z-7 : Log Date
API .                              : API Number
UWI .                              : Unique Well ID
DEPTHMD .ft          5494.27930    : Measured Depth
DEPTHTVD .ft            5494.00    : True Vertical Depth
~Curve Information -----------------------------------------
TIME   .S    99 995 99  1 : System time since record start
APQJ   .psi  99 995 99  1 : 1970JB Quartzdyne gauge pressure
CPTV   .cm3  99 995 99  1 : Cumulative pump-through volume
DBDEPTH.ft   99 995 99  1 : Depth of 1970DB straddle packer
RTDQJ  .degF 99 995 99  1 : 1970JB Quartzdyne pressure gauge temperature
SPEP   .psi  99 995 99  1 : Packer element pressure
PTFRC  .cc/s 99 995 99  1 : Rate (injection and flowback)
CPTVF  .L    99 995 99  1 : Continuous pump-through volume
ASPEP  .psi  99 995 99  1 : Absolute packer element pressure
~Params ----------------------------------------------------
LATI.DEG 0.0 : Latitude
LONG.DEG 0.0 : Longitude
~Other -----------------------------------------------------
~ASCII -----------------------------------------------------
    0.00000 2358.41479    -999.25 5494.27930  232.53806    0.00000    0.00000    -999.25 2360.00000
    0.12500 2358.39893    -999.25 5494.27930  232.53781    0.00000    0.00000    0.00000 2360.00000
    0.25000    -999.25    -999.25 5494.27930    -999.25    0.00000    0.00000    0.00000 2360.00000
    0.37500    -999.25    -999.25 5494.27930    -999.25    0.00000    0.00000    0.00000 2360.00000
    0.50000    -999.25    -999.25 5494.27930    -999.25    0.00000    0.00000    0.00000 2360.00000
    0.62500    -999.25    -999.25 5494.27930    -999.25    0.00000    0.00000    0.00000 2360.00000
    0.75000    -999.25    -999.25 5494.27930    -999.25    0.00000    0.00000    0.00000 2360.00000
    0.87500 2358.42944    -999.25 5494.27930  232.53830    0.00000    0.00000    0.00000 2360.00000
    1.00000 2358.41479    -999.25 5494.27930  232.53806    0.00000    0.00000    0.00000 2360.00000
    1.12500 2358.39893    -999.25 5494.27930  232.53781    0.00000    0.00000    0.00000 2360.00000
    1.25000 2358.38184    -999.25 5494.27930  232.53754    0.00000    0.00000    0.00000 2360.00000
    1.37500 2358.36377    -999.25 5494.27930  232.53729    0.00000    0.00000    0.00000 2360.00000
    1.50000 2358.34399    -999.25 5494.27930  232.53702    0.00000    0.00000    0.00000 2360.00000
    1.62500 2358.32275    -999.25 5494.27930  232.53677    0.00000    0.00000    0.00000 2360.00000
    1.75000 2358.30054    -999.25 5494.27930  232.53651    0.00000    0.00000    0.00000 2360.00000
    1.87500 2358.27759    -999.25 5494.27930  232.53627    0.00000    0.00000    0.00000 2360.00000
    2.00000 2358.25488    -999.25 5494.27930  232.53600    0.00000    0.00000    0.00000 2360.00000
    2.12500 2358.23291    -999.25 5494.27930  232.53572    0.00000    0.00000    0.00000 2360.00000
    2.25000 2358.21167    -999.25 5494.27930  232.53545    0.00000    0.00000    0.00000 2360.00000
    2.37500 2358.19165    -999.25 5494.27930  232.53517    0.00000    0.00000    0.00000 2360.00000
    2.50000 2358.17261    -999.25 5494.27930  232.53493    0.00000    0.00000    0.00000 2360.00000
    2.62500 2358.15454    -999.25 5494.27930  232.53468    0.00000    0.00000    0.00000 2360.00000
    2.75000 2358.13721    -999.25 5494.27930  232.53442    0.00000    0.00000    0.00000 2360.00000
    2.87500 2358.12012    -999.25 5494.27930  232.53415    0.00000    0.00000    0.00000 2360.00000
    3.00000 2358.10400    -999.25 5494.27930  232.53391    0.00000    0.00000    0.00000 2360.00000
    3.12500 2358.08838    -999.25 5494.27930  232.53366    0.00000    0.00000    0.00000 2360.00000
    3.25000 2358.07324    -999.25 5494.27930  232.53339    0.00000    0.00000    0.00000 2360.00000
    3.37500 2358.05884    -999.25 5494.27930  232.53314    0.00000    0.00000    0.00000 2360.00000
    3.50000 2358.04468    -999.25 5494.27930  232.53287    0.00000    0.00000    0.00000 2360.00000
    3.62500 2358.03149    -999.25 5494.27930  232.53259    0.00000    0.00000    0.00000 2360.00000
    3.75000 2358.01904    -999.25 5494.27930  232.53233    0.00000    0.00000    0.00000 2360.00000
    3.87500 2358.00708    -999.25 5494.27930  232.53207    0.00000    0.00000    0.00000 2360.00000
    4.00000 2357.99707    -999.25 5494.27930  232.53181    0.00000    0.00000    0.00000 2360.00000
    4.12500 2357.98828    0.00000 5494.27930  232.53154    0.00000    0.00000    0.00000 2360.00000
    4.25000 2357.98169    0.00000 5494.27930  232.53131    0.00000    5.48837    0.00069 2360.00000
    4.37500 2357.97705    0.00000 5494.27930  232.53105    0.00000    5.48837    0.00137 2360.00000
    4.50000 2357.97437    0.00000 5494.27930  232.53079    0.00000    5.48837    0.00206 2360.00000
    4.62500 2357.97363    0.00000 5494.27930  232.53056    0.00000    5.48837    0.00274 2360.00000
    4.75000 2357.97461    0.00000 5494.27930  232.53030    0.00000    5.48837    0.00343 2360.00000
    4.87500 2357.97656    0.00000 5494.27930  232.53006    0.00000    5.48837    0.00412 2360.00000
    5.00000 2357.97974    0.00000 5494.27930  232.52979    0.00000    5.48837    0.00480 2360.00000
    5.12500 2357.98364    0.00000 5494.27930  232.52954    0.00000    5.48837    0.00549 2360.00000
    5.25000 2357.98828    0.00000 5494.27930  232.52927    0.00000    5.48837    0.00617 2360.00000
    5.37500 2357.99341    0.00000 5494.27930  232.52899    0.00000    5.48837    0.00686 2360.00000
    5.50000 2357.99951    0.00000 5494.27930  232.52872    0.00000    5.48837    0.00755 2360.00000
    5.62500 2358.00659    0.00000 5494.27930  232.52844    0.00000    5.48837    0.00823 2360.00000
    5.75000 2358.01465    0.00000 5494.27930  232.52820    0.00000    5.48837    0.00892 2360.00000
    5.87500 2358.02368    0.00000 5494.27930  232.52794    0.00000    5.48837    0.00960 2360.00000
    6.00000 2358.03369    0.00000 5494.27930  232.52769    0.00000    5.48837    0.01029 2360.00000
    6.12500 2358.04492    0.00000 5494.27930  232.52742    0.00000    5.48837    0.01098 2360.00000
    6.25000 2358.05713    0.00000 5494.27930  232.52719    0.00000    5.48837    0.01166 2360.00000
    6.37500 2358.07129    0.00000 5494.27930  232.52693    0.00000    5.48837    0.01235 2360.00000
    6.50000 2358.08691    0.00000 5494.27930  232.52669    0.00000    5.48837    0.01303 2360.00000
    6.62500 2358.10352    0.00000 5494.27930  232.52644    0.00000    5.48837    0.01372 2360.00000
    6.75000 2358.12109    0.00000 5494.27930  232.52617    0.00000    5.48837    0.01441 2360.00000
    6.87500 2358.13916    0.00000 5494.27930  232.52591    0.00000    5.48837    0.01509 2360.00000
    7.00000 2358.15771    0.00000 5494.27930  232.52563    0.00000    5.48837    0.01578 2360.00000
    7.12500 2358.17676    0.00000 5494.27930  232.52536    0.00000    5.48837    0.01647 2360.00000
    7.25000 2358.19507    0.00000 5494.27930  232.52512    0.00000    5.48837    0.01715 2360.00000
    7.37500 2358.21289    0.00000 5494.27930  232.52484    0.00000    5.48837    0.01784 2360.00000
    7.50000 2358.22998    0.00000 5494.27930  232.52458    0.00000    5.48837    0.01852 2360.00000
    7.62500 2358.24609    0.00000 5494.27930  232.52432    0.00000    5.48837    0.01921 2360.00000
    7.75000 2358.26172    0.00000 5494.27930  232.52405    0.00000    5.48837    0.01990 2360.00000
    7.87500 2358.27710    0.00000 5494.27930  232.52382    0.00000    5.48837    0.02058 2360.00000
    8.00000 2358.29248    0.00000 5494.27930  232.52356    0.00000    5.48837    0.02127 2360.00000
    8.12500 2358.30762    0.00000 5494.27930  232.52328    0.00000    5.48837    0.02195 2360.00000
    8.25000 2358.32275    0.00000 5494.27930  232.52303    0.00000    5.48837    0.02264 2360.00000
    8.37500 2358.33740    0.00000 5494.27930  232.52275    0.00000    5.48837    0.02333 2360.00000
    8.50000 2358.35156    0.00000 5494.27930  232.52248    0.00000    5.48837    0.02401 2360.00000
    8.62500 2358.36523    0.00000 5494.27930  232.52223    0.00000    5.48837    0.02470 2360.00000
    8.75000 2358.37793    0.00000 5494.27930  232.52199    0.00000    5.48837    0.02538 2360.00000
    8.87500 2358.38965    0.00000 5494.27930  232.52173    0.00000    5.48837    0.02607 2360.00000
    9.00000 2358.39990    0.00000 5494.27930  232.52147    0.00000    5.48837    0.02676 2360.00000
    9.12500 2358.40894    0.00000 5494.27930  232.52122    0.00000    5.48837    0.02744 2360.00000
    9.25000 2358.41675    0.00000 5494.27930  232.52097    0.00000    5.48837    0.02813 2360.00000
    9.37500 2358.42334    0.00000 5494.27930  232.52069    0.00000    5.48837    0.02881 2360.00000
    9.50000 2358.42896    0.00000 5494.27930  232.52045    0.00000    5.48837    0.02950 2360.00000
    9.62500 2358.43335    0.00000 5494.27930  232.52017    0.00000    5.48837    0.03019 2360.00000
    9.75000 2358.43604    0.00000 5494.27930  232.51994    0.00000    5.48837    0.03087 2360.00000
    9.87500 2358.43750    0.00000 5494.27930  232.51965    0.00000    5.48837    0.03156 2360.00000
